{"recommendations":[{"School":"providence college","Recommendation_Tier":"Strong Match (Good Earnings)","Has_Salary_Data":true,"Median_Earnings_1yr":41923.0,"Median_Earnings_5yr":71039.0,"Avg_GPA":3.6,"Avg_SAT":1298.0,"Fortune500_Hirers":["Hasbro","Citizens Financial Group"],"Total_Enrollment":4473,"Admission_Rate":0.53,"Avg_Net_Price":37284.0,"Latitude":41.842742,"Longitude":-71.437446},{"School":"virginia military institute","Recommendation_Tier":"Strong Match (Good Earnings)","Has_Salary_Data":true,"Median_Earnings_1yr":42543.0,"Median_Earnings_5yr":62892.0,"Avg_GPA":3.6,"Avg_SAT":1187.0,"Fortune500_Hirers":[],"Total_Enrollment":1512,"Admission_Rate":0.71,"Avg_Net_Price":18969.0,"Latitude":37.7896,"Longitude":-79.437067},{"School":"marquette university","Recommendation_Tier":"Strong Match (Good Earnings)","Has_Salary_Data":true,"Median_Earnings_1yr":36907.0,"Median_Earnings_5yr":53955.0,"Avg_GPA":3.6,"Avg_SAT":1255.0,"Fortune500_Hirers":["Rockwell Automation","Johnson Controls","Generac","Molson Coors Beverage Company","WEC Energy Group","A. O. Smith","GE HealthCare"],"Total_Enrollment":11167,"Admission_Rate":0.87,"Avg_Net_Price":34732.0,"Latitude":43.03903,"Longitude":-87.927961},{"School":"university of portland","Recommendation_Tier":"Strong Match","Has_Salary_Data":false,"Median_Earnings_1yr":null,"Median_Earnings_5yr":null,"Avg_GPA":3.6,"Avg_SAT":1250.0,"Fortune500_Hirers":[],"Total_Enrollment":3793,"Admission_Rate":0.93,"Avg_Net_Price":37317.0,"Latitude":45.572724,"Longitude":-122.726691},{"School":"university of the pacific","Recommendation_Tier":"Strong Match","Has_Salary_Data":false,"Median_Earnings_1yr":null,"Median_Earnings_5yr":null,"Avg_GPA":3.6,"Avg_SAT":1251.0,"Fortune500_Hirers":[],"Total_Enrollment":6277,"Admission_Rate":0.93,"Avg_Net_Price":32780.0,"Latitude":37.981424,"Longitude":-121.312301},{"School":"earlham college","Recommendation_Tier":"Strong Match","Has_Salary_Data":false,"Median_Earnings_1yr":null,"Median_Earnings_5yr":null,"Avg_GPA":3.6,"Avg_SAT":1246.0,"Fortune500_Hirers":[],"Total_Enrollment":677,"Admission_Rate":0.73,"Avg_Net_Price":21370.0,"Latitude":39.823431,"Longitude":-84.915037},{"School":"knox college","Recommendation_Tier":"Strong Match","Has_Salary_Data":false,"Median_Earnings_1yr":null,"Median_Earnings_5yr":null,"Avg_GPA":3.6,"Avg_SAT":1255.0,"Fortune500_Hirers":[],"Total_Enrollment":1058,"Admission_Rate":0.73,"Avg_Net_Price":23266.0,"Latitude":40.943064,"Longitude":-90.373165},{"School":"ursinus college","Recommendation_Tier":"Strong Match","Has_Salary_Data":false,"Median_Earnings_1yr":null,"Median_Earnings_5yr":null,"Avg_GPA":3.6,"Avg_SAT":1257.0,"Fortune500_Hirers":[],"Total_Enrollment":1527,"Admission_Rate":0.82,"Avg_Net_Price":31400.0,"Latitude":40.193023,"Longitude":-75.456505},{"School":"cornell college","Recommendation_Tier":"Strong Match","Has_Salary_Data":false,"Median_Earnings_1yr":null,"Median_Earnings_5yr":null,"Avg_GPA":3.6,"Avg_SAT":1241.0,"Fortune500_Hirers":[],"Total_Enrollment":1073,"Admission_Rate":0.79,"Avg_Net_Price":25028.0,"Latitude":41.924554,"Longitude":-91.423741},{"School":"cuny bernard m baruch college","Recommendation_Tier":"Strong Match","Has_Salary_Data":false,"Median_Earnings_1yr":null,"Median_Earnings_5yr":null,"Avg_GPA":3.6,"Avg_SAT":1260.0,"Fortune500_Hirers":[],"Total_Enrollment":19854,"Admission_Rate":0.5,"Avg_Net_Price":3897.0,"Latitude":40.740238,"Longitude":-73.983417},{"School":"wabash college","Recommendation_Tier":"Strong Match (Good Earnings)","Has_Salary_Data":true,"Median_Earnings_1yr":39138.0,"Median_Earnings_5yr":60746.0,"Avg_GPA":3.5,"Avg_SAT":1232.0,"Fortune500_Hirers":[],"Total_Enrollment":835,"Admission_Rate":0.61,"Avg_Net_Price":24412.0,"Latitude":40.037588,"Longitude":-86.906},{"School":"loyola university maryland","Recommendation_Tier":"Strong Match (Good Earnings)","Has_Salary_Data":true,"Median_Earnings_1yr":36547.0,"Median_Earnings_5yr":65917.0,"Avg_GPA":3.7,"Avg_SAT":1230.0,"Fortune500_Hirers":["Constellation Energy","McCormick & Company","T. Rowe Price"],"Total_Enrollment":5238,"Admission_Rate":0.83,"Avg_Net_Price":37375.0,"Latitude":39.346358,"Longitude":-76.621872},{"School":"monmouth university","Recommendation_Tier":"Strong Match (Good Earnings)","Has_Salary_Data":true,"Median_Earnings_1yr":48482.0,"Median_Earnings_5yr":54449.0,"Avg_GPA":3.6,"Avg_SAT":1150.0,"Fortune500_Hirers":[],"Total_Enrollment":5027,"Admission_Rate":0.91,"Avg_Net_Price":31594.0,"Latitude":40.280066,"Longitude":-74.006447},{"School":"university of st thomas","Recommendation_Tier":"Strong Match","Has_Salary_Data":false,"Median_Earnings_1yr":null,"Median_Earnings_5yr":null,"Avg_GPA":3.6,"Avg_SAT":1269.0,"Fortune500_Hirers":["3M","Ameriprise Financial","U.S. Bancorp","General Mills","Xcel Energy","Medtronic","Target Corporation","Travelers Companies (The)","UnitedHealth Group","Ecolab","Solventum","Best Buy"],"Total_Enrollment":9025,"Admission_Rate":0.77,"Avg_Net_Price":31799.0,"Latitude":44.943439,"Longitude":-93.188986},{"School":"university of st thomas","Recommendation_Tier":"Strong Match","Has_Salary_Data":false,"Median_Earnings_1yr":null,"Median_Earnings_5yr":null,"Avg_GPA":3.6,"Avg_SAT":1269.0,"Fortune500_Hirers":["3M","Ameriprise Financial","U.S. Bancorp","General Mills","Xcel Energy","Medtronic","Target Corporation","Travelers Companies (The)","UnitedHealth Group","Ecolab","Solventum","Best Buy"],"Total_Enrollment":9025,"Admission_Rate":0.77,"Avg_Net_Price":31799.0,"Latitude":29.736438,"Longitude":-95.393102},{"School":"university of st thomas","Recommendation_Tier":"Strong Match","Has_Salary_Data":false,"Median_Earnings_1yr":null,"Median_Earnings_5yr":null,"Avg_GPA":3.6,"Avg_SAT":1269.0,"Fortune500_Hirers":["3M","Ameriprise Financial","U.S. Bancorp","General Mills","Xcel Energy","Medtronic","Target Corporation","Travelers Companies (The)","UnitedHealth Group","Ecolab","Solventum","Best Buy"],"Total_Enrollment":9025,"Admission_Rate":0.77,"Avg_Net_Price":31799.0,"Latitude":44.943439,"Longitude":-93.188986},{"School":"university of st thomas","Recommendation_Tier":"Strong Match","Has_Salary_Data":false,"Median_Earnings_1yr":null,"Median_Earnings_5yr":null,"Avg_GPA":3.6,"Avg_SAT":1269.0,"Fortune500_Hirers":["3M","Ameriprise Financial","U.S. Bancorp","General Mills","Xcel Energy","Medtronic","Target Corporation","Travelers Companies (The)","UnitedHealth Group","Ecolab","Solventum","Best Buy"],"Total_Enrollment":9025,"Admission_Rate":0.77,"Avg_Net_Price":31799.0,"Latitude":29.736438,"Longitude":-95.393102},{"School":"muhlenberg college","Recommendation_Tier":"Strong Match","Has_Salary_Data":false,"Median_Earnings_1yr":null,"Median_Earnings_5yr":null,"Avg_GPA":3.6,"Avg_SAT":1270.0,"Fortune500_Hirers":["Air Products"],"Total_Enrollment":1959,"Admission_Rate":0.66,"Avg_Net_Price":35152.0,"Latitude":40.596416,"Longitude":-75.508502},{"School":"university of kansas","Recommendation_Tier":"Strong Match (Good Earnings)","Has_Salary_Data":true,"Median_Earnings_1yr":42451.0,"Median_Earnings_5yr":null,"Avg_GPA":3.7,"Avg_SAT":1235.0,"Fortune500_Hirers":[],"Total_Enrollment":26708,"Admission_Rate":0.88,"Avg_Net_Price":20054.0,"Latitude":38.958549,"Longitude":-95.247567},{"School":"the new school","Recommendation_Tier":"Strong Match","Has_Salary_Data":false,"Median_Earnings_1yr":null,"Median_Earnings_5yr":null,"Avg_GPA":3.6,"Avg_SAT":1275.0,"Fortune500_Hirers":[],"Total_Enrollment":10108,"Admission_Rate":0.57,"Avg_Net_Price":50908.0,"Latitude":40.735508,"Longitude":-73.997114},{"School":"university of tulsa","Recommendation_Tier":"Strong Match","Has_Salary_Data":false,"Median_Earnings_1yr":null,"Median_Earnings_5yr":null,"Avg_GPA":3.6,"Avg_SAT":1276.0,"Fortune500_Hirers":[],"Total_Enrollment":3769,"Admission_Rate":0.69,"Avg_Net_Price":20936.0,"Latitude":36.152324,"Longitude":-95.945941},{"School":"westmont college","Recommendation_Tier":"Strong Match","Has_Salary_Data":false,"Median_Earnings_1yr":null,"Median_Earnings_5yr":null,"Avg_GPA":3.6,"Avg_SAT":1222.0,"Fortune500_Hirers":[],"Total_Enrollment":1284,"Admission_Rate":0.82,"Avg_Net_Price":31145.0,"Latitude":34.450151,"Longitude":-119.662517},{"School":"berea college","Recommendation_Tier":"Strong Match","Has_Salary_Data":false,"Median_Earnings_1yr":null,"Median_Earnings_5yr":null,"Avg_GPA":3.6,"Avg_SAT":1216.0,"Fortune500_Hirers":[],"Total_Enrollment":1433,"Admission_Rate":0.25,"Avg_Net_Price":5184.0,"Latitude":37.57202,"Longitude":-84.292893},{"School":"salve regina university","Recommendation_Tier":"Strong Match","Has_Salary_Data":false,"Median_Earnings_1yr":null,"Median_Earnings_5yr":null,"Avg_GPA":3.6,"Avg_SAT":null,"Fortune500_Hirers":[],"Total_Enrollment":2872,"Admission_Rate":0.7,"Avg_Net_Price":34644.0,"Latitude":41.471545,"Longitude":-71.30124},{"School":"andrews university","Recommendation_Tier":"Strong Match","Has_Salary_Data":false,"Median_Earnings_1yr":null,"Median_Earnings_5yr":null,"Avg_GPA":3.6,"Avg_SAT":1215.0,"Fortune500_Hirers":[],"Total_Enrollment":2858,"Admission_Rate":0.91,"Avg_Net_Price":21934.0,"Latitude":41.963859,"Longitude":-86.355815},{"School":"coe college","Recommendation_Tier":"Strong Match","Has_Salary_Data":false,"Median_Earnings_1yr":null,"Median_Earnings_5yr":null,"Avg_GPA":3.6,"Avg_SAT":1211.0,"Fortune500_Hirers":[],"Total_Enrollment":1264,"Admission_Rate":0.73,"Avg_Net_Price":21155.0,"Latitude":41.988263,"Longitude":-91.658192},{"School":"eckerd college","Recommendation_Tier":"Strong Match","Has_Salary_Data":false,"Median_Earnings_1yr":null,"Median_Earnings_5yr":null,"Avg_GPA":3.6,"Avg_SAT":1210.0,"Fortune500_Hirers":[],"Total_Enrollment":1993,"Admission_Rate":0.65,"Avg_Net_Price":43732.0,"Latitude":27.715798,"Longitude":-82.687043},{"School":"university of houston","Recommendation_Tier":"Strong Match (Good Earnings)","Has_Salary_Data":true,"Median_Earnings_1yr":39240.0,"Median_Earnings_5yr":54902.0,"Avg_GPA":3.5,"Avg_SAT":1219.0,"Fortune500_Hirers":["EOG Resources","Camden Property Trust","Chevron Corporation","United Airlines Holdings","Schlumberger","CenterPoint Energy","Roper Technologies","Hewlett Packard Enterprise","LyondellBasell","Phillips 66","ConocoPhillips","Kinder Morgan","McKesson Corporation","Air Products","ExxonMobil","Kimco Realty","Coterra","NRG Energy","Baker Hughes","Invesco","Williams Companies","Targa Resources","Crown Castle","Quanta Services","HP Inc.","Halliburton","Waste Management","Dow Inc.","Occidental Petroleum","Hess Corporation","Sysco"],"Total_Enrollment":46700,"Admission_Rate":0.66,"Avg_Net_Price":14480.0,"Latitude":29.720393,"Longitude":-95.343537},{"School":"seattle university","Recommendation_Tier":"Strong Match","Has_Salary_Data":false,"Median_Earnings_1yr":null,"Median_Earnings_5yr":null,"Avg_GPA":3.7,"Avg_SAT":1251.0,"Fortune500_Hirers":["F5, Inc.","Costco","Expeditors International","Weyerhaeuser","Expedia Group"],"Total_Enrollment":7121,"Admission_Rate":0.85,"Avg_Net_Price":36843.0,"Latitude":47.608859,"Longitude":-122.318851},{"School":"arizona state university campus immersion","Recommendation_Tier":"Strong Match (Good Earnings)","Has_Salary_Data":true,"Median_Earnings_1yr":39283.0,"Median_Earnings_5yr":50922.0,"Avg_GPA":3.5,"Avg_SAT":1230.0,"Fortune500_Hirers":[],"Total_Enrollment":80065,"Admission_Rate":0.9,"Avg_Net_Price":14653.0,"Latitude":33.417721,"Longitude":-111.934383},{"School":"augustana university","Recommendation_Tier":"Strong Match","Has_Salary_Data":false,"Median_Earnings_1yr":null,"Median_Earnings_5yr":null,"Avg_GPA":3.7,"Avg_SAT":1248.0,"Fortune500_Hirers":[],"Total_Enrollment":2086,"Admission_Rate":0.66,"Avg_Net_Price":24072.0,"Latitude":43.525148,"Longitude":-96.736975},{"School":"university of scranton","Recommendation_Tier":"Strong Match (Good Earnings)","Has_Salary_Data":true,"Median_Earnings_1yr":26442.0,"Median_Earnings_5yr":64246.0,"Avg_GPA":3.6,"Avg_SAT":1226.0,"Fortune500_Hirers":[],"Total_Enrollment":4731,"Admission_Rate":0.84,"Avg_Net_Price":34374.0,"Latitude":41.406556,"Longitude":-75.656915},{"School":"loyola university chicago","Recommendation_Tier":"Strong Match (Good Earnings)","Has_Salary_Data":true,"Median_Earnings_1yr":31079.0,"Median_Earnings_5yr":63957.0,"Avg_GPA":3.7,"Avg_SAT":1263.0,"Fortune500_Hirers":["Walgreens Boots Alliance","Dover Corporation","CME Group","Loews Corporation","Equity Residential","Northern Trust","W. W. Grainger","Illinois Tool Works"],"Total_Enrollment":16899,"Admission_Rate":0.79,"Avg_Net_Price":37731.0,"Latitude":42.000765,"Longitude":-87.656872},{"School":"university of wyoming","Recommendation_Tier":"Strong Match (Good Earnings)","Has_Salary_Data":true,"Median_Earnings_1yr":35450.0,"Median_Earnings_5yr":53486.0,"Avg_GPA":3.6,"Avg_SAT":1203.0,"Fortune500_Hirers":[],"Total_Enrollment":11100,"Admission_Rate":0.96,"Avg_Net_Price":12224.0,"Latitude":41.311773,"Longitude":-105.57931},{"School":"endicott college","Recommendation_Tier":"Strong Match","Has_Salary_Data":false,"Median_Earnings_1yr":null,"Median_Earnings_5yr":null,"Avg_GPA":3.6,"Avg_SAT":null,"Fortune500_Hirers":[],"Total_Enrollment":4006,"Admission_Rate":0.73,"Avg_Net_Price":35642.0,"Latitude":42.553296,"Longitude":-70.840847},{"School":"juniata college","Recommendation_Tier":"Strong Match","Has_Salary_Data":false,"Median_Earnings_1yr":null,"Median_Earnings_5yr":null,"Avg_GPA":3.7,"Avg_SAT":null,"Fortune500_Hirers":[],"Total_Enrollment":1212,"Admission_Rate":0.76,"Avg_Net_Price":22597.0,"Latitude":40.500523,"Longitude":-78.017292},{"School":"william jewell college","Recommendation_Tier":"Strong Match","Has_Salary_Data":false,"Median_Earnings_1yr":null,"Median_Earnings_5yr":null,"Avg_GPA":3.6,"Avg_SAT":1203.0,"Fortune500_Hirers":[],"Total_Enrollment":853,"Admission_Rate":0.41,"Avg_Net_Price":23039.0,"Latitude":39.247844,"Longitude":-94.413126},{"School":"point loma nazarene university","Recommendation_Tier":"Strong Match","Has_Salary_Data":false,"Median_Earnings_1yr":null,"Median_Earnings_5yr":null,"Avg_GPA":3.7,"Avg_SAT":1242.0,"Fortune500_Hirers":[],"Total_Enrollment":4319,"Admission_Rate":0.82,"Avg_Net_Price":34644.0,"Latitude":32.718391,"Longitude":-117.250265},{"School":"wagner college","Recommendation_Tier":"Strong Match","Has_Salary_Data":false,"Median_Earnings_1yr":null,"Median_Earnings_5yr":null,"Avg_GPA":3.6,"Avg_SAT":null,"Fortune500_Hirers":[],"Total_Enrollment":1949,"Admission_Rate":0.69,"Avg_Net_Price":33307.0,"Latitude":40.615588,"Longitude":-74.092913},{"School":"transylvania university","Recommendation_Tier":"Strong Match","Has_Salary_Data":false,"Median_Earnings_1yr":null,"Median_Earnings_5yr":null,"Avg_GPA":3.7,"Avg_SAT":1259.0,"Fortune500_Hirers":[],"Total_Enrollment":979,"Admission_Rate":0.91,"Avg_Net_Price":26054.0,"Latitude":38.052983,"Longitude":-84.493202},{"School":"american university","Recommendation_Tier":"Strong Match (Good Earnings)","Has_Salary_Data":true,"Median_Earnings_1yr":43809.0,"Median_Earnings_5yr":54363.0,"Avg_GPA":3.7,"Avg_SAT":1318.0,"Fortune500_Hirers":[],"Total_Enrollment":13885,"Admission_Rate":0.41,"Avg_Net_Price":37319.0,"Latitude":38.936005,"Longitude":-77.088875},{"School":"rollins college","Recommendation_Tier":"Strong Match","Has_Salary_Data":false,"Median_Earnings_1yr":null,"Median_Earnings_5yr":null,"Avg_GPA":3.5,"Avg_SAT":1260.0,"Fortune500_Hirers":[],"Total_Enrollment":3029,"Admission_Rate":0.5,"Avg_Net_Price":33216.0,"Latitude":28.592787,"Longitude":-81.349239},{"School":"benedictine college","Recommendation_Tier":"Strong Match","Has_Salary_Data":false,"Median_Earnings_1yr":null,"Median_Earnings_5yr":null,"Avg_GPA":3.6,"Avg_SAT":1200.0,"Fortune500_Hirers":[],"Total_Enrollment":2362,"Admission_Rate":0.99,"Avg_Net_Price":23011.0,"Latitude":39.573079,"Longitude":-95.113858},{"School":"cuny hunter college","Recommendation_Tier":"Strong Match (Good Earnings)","Has_Salary_Data":true,"Median_Earnings_1yr":28790.0,"Median_Earnings_5yr":64752.0,"Avg_GPA":3.7,"Avg_SAT":1260.0,"Fortune500_Hirers":[],"Total_Enrollment":22970,"Admission_Rate":0.48,"Avg_Net_Price":4014.0,"Latitude":40.768669,"Longitude":-73.964795},{"School":"warren wilson college","Recommendation_Tier":"Strong Match","Has_Salary_Data":false,"Median_Earnings_1yr":null,"Median_Earnings_5yr":null,"Avg_GPA":3.6,"Avg_SAT":1198.0,"Fortune500_Hirers":[],"Total_Enrollment":793,"Admission_Rate":0.84,"Avg_Net_Price":22858.0,"Latitude":35.610328,"Longitude":-82.442619},{"School":"southwestern university","Recommendation_Tier":"Strong Match","Has_Salary_Data":false,"Median_Earnings_1yr":null,"Median_Earnings_5yr":null,"Avg_GPA":3.5,"Avg_SAT":1238.0,"Fortune500_Hirers":[],"Total_Enrollment":1483,"Admission_Rate":0.45,"Avg_Net_Price":29830.0,"Latitude":30.634341,"Longitude":-97.665738},{"School":"iowa state university","Recommendation_Tier":"Strong Match (Good Earnings)","Has_Salary_Data":true,"Median_Earnings_1yr":41294.0,"Median_Earnings_5yr":46000.0,"Avg_GPA":3.7,"Avg_SAT":1220.0,"Fortune500_Hirers":["3M","Union Pacific Corporation","General Mills","Corteva","IDEX Corporation","Deere & Company","DuPont","Tyson Foods","Emerson Electric","Garmin","Lennox International","Target Corporation","W. R. Berkley Corporation","Alliant Energy","Principal Financial Group","Conagra Brands","Hormel Foods"],"Total_Enrollment":29969,"Admission_Rate":0.9,"Avg_Net_Price":16105.0,"Latitude":42.026212,"Longitude":-93.648504},{"School":"oregon state university","Recommendation_Tier":"Strong Match (Good Earnings)","Has_Salary_Data":true,"Median_Earnings_1yr":34589.0,"Median_Earnings_5yr":51945.0,"Avg_GPA":3.6,"Avg_SAT":1202.0,"Fortune500_Hirers":["Nike, Inc.","Waste Management","Kroger","Garmin","Weyerhaeuser","Lam Research","Fortive","Trimble Inc."],"Total_Enrollment":34292,"Admission_Rate":0.83,"Avg_Net_Price":21444.0,"Latitude":44.56395,"Longitude":-123.274723},{"School":"university of kentucky","Recommendation_Tier":"Strong Match (Good Earnings)","Has_Salary_Data":true,"Median_Earnings_1yr":28432.0,"Median_Earnings_5yr":55642.0,"Avg_GPA":3.6,"Avg_SAT":1227.0,"Fortune500_Hirers":["Yum! Brands","Humana","Cincinnati Financial","Vulcan Materials Company","Ventas","Kroger","American Water Works","Martin Marietta Materials","Fifth Third Bancorp","TransDigm Group","PPL Corporation","Cintas","Marathon Petroleum","Brown–Forman"],"Total_Enrollment":31547,"Admission_Rate":0.95,"Avg_Net_Price":19831.0,"Latitude":38.038911,"Longitude":-84.504747},{"School":"loyola university new orleans","Recommendation_Tier":"Strong Match","Has_Salary_Data":false,"Median_Earnings_1yr":null,"Median_Earnings_5yr":null,"Avg_GPA":3.6,"Avg_SAT":1194.0,"Fortune500_Hirers":[],"Total_Enrollment":4397,"Admission_Rate":0.78,"Avg_Net_Price":22596.0,"Latitude":29.936141,"Longitude":-90.120417},{"School":"st lawrence university","Recommendation_Tier":"Strong Match (Good Earnings)","Has_Salary_Data":true,"Median_Earnings_1yr":35230.0,"Median_Earnings_5yr":56830.0,"Avg_GPA":3.7,"Avg_SAT":1281.0,"Fortune500_Hirers":[],"Total_Enrollment":2175,"Admission_Rate":0.63,"Avg_Net_Price":31578.0,"Latitude":44.589879,"Longitude":-75.161343},{"School":"stony brook university","Recommendation_Tier":"Strong Match (Good Earnings)","Has_Salary_Data":true,"Median_Earnings_1yr":36426.0,"Median_Earnings_5yr":59251.0,"Avg_GPA":3.6,"Avg_SAT":1337.0,"Fortune500_Hirers":["Zebra Technologies","MarketAxess","Consolidated Edison","Henry Schein","Estée Lauder Companies (The)","Kimco Realty","Broadridge Financial Solutions"],"Total_Enrollment":25710,"Admission_Rate":0.49,"Avg_Net_Price":16478.0,"Latitude":40.91476,"Longitude":-73.12046},{"School":"covenant college","Recommendation_Tier":"Strong Match","Has_Salary_Data":false,"Median_Earnings_1yr":null,"Median_Earnings_5yr":null,"Avg_GPA":3.7,"Avg_SAT":1233.0,"Fortune500_Hirers":[],"Total_Enrollment":886,"Admission_Rate":0.84,"Avg_Net_Price":23413.0,"Latitude":34.965161,"Longitude":-85.375066},{"School":"rockhurst university","Recommendation_Tier":"Strong Match","Has_Salary_Data":false,"Median_Earnings_1yr":null,"Median_Earnings_5yr":null,"Avg_GPA":3.6,"Avg_SAT":1189.0,"Fortune500_Hirers":[],"Total_Enrollment":3405,"Admission_Rate":0.66,"Avg_Net_Price":21116.0,"Latitude":39.032318,"Longitude":-94.573003},{"School":"concordia college at moorhead","Recommendation_Tier":"Strong Match","Has_Salary_Data":false,"Median_Earnings_1yr":null,"Median_Earnings_5yr":null,"Avg_GPA":3.6,"Avg_SAT":1188.0,"Fortune500_Hirers":[],"Total_Enrollment":1903,"Admission_Rate":0.66,"Avg_Net_Price":23029.0,"Latitude":46.862482,"Longitude":-96.76749},{"School":"the university of texas at arlington","Recommendation_Tier":"Strong Match (Good Earnings)","Has_Salary_Data":true,"Median_Earnings_1yr":44806.0,"Median_Earnings_5yr":57421.0,"Avg_GPA":3.5,"Avg_SAT":1151.0,"Fortune500_Hirers":["Texas Pacific Land Corporation","Vistra Corp.","HCA Healthcare","D. R. Horton","Invitation Homes","Southwest Airlines","Charles Schwab Corporation","Keurig Dr Pepper","Lennox International","Lockheed Martin","Textron","McKesson Corporation","Universal Health Services","Atmos Energy","Copart"],"Total_Enrollment":43946,"Admission_Rate":0.81,"Avg_Net_Price":15220.0,"Latitude":32.729718,"Longitude":-97.11296},{"School":"georgetown college","Recommendation_Tier":"Strong Match","Has_Salary_Data":false,"Median_Earnings_1yr":null,"Median_Earnings_5yr":null,"Avg_GPA":3.6,"Avg_SAT":1187.0,"Fortune500_Hirers":[],"Total_Enrollment":1548,"Admission_Rate":0.72,"Avg_Net_Price":18056.0,"Latitude":38.207615,"Longitude":-84.553767},{"School":"northwestern college","Recommendation_Tier":"Strong Match","Has_Salary_Data":false,"Median_Earnings_1yr":null,"Median_Earnings_5yr":null,"Avg_GPA":3.6,"Avg_SAT":1185.0,"Fortune500_Hirers":[],"Total_Enrollment":1651,"Admission_Rate":0.87,"Avg_Net_Price":22968.0,"Latitude":42.999007,"Longitude":-96.058772},{"School":"northwestern college","Recommendation_Tier":"Strong Match","Has_Salary_Data":false,"Median_Earnings_1yr":null,"Median_Earnings_5yr":null,"Avg_GPA":3.6,"Avg_SAT":1185.0,"Fortune500_Hirers":[],"Total_Enrollment":1651,"Admission_Rate":0.87,"Avg_Net_Price":22968.0,"Latitude":41.721406,"Longitude":-87.742567},{"School":"clark university","Recommendation_Tier":"Strong Match","Has_Salary_Data":false,"Median_Earnings_1yr":null,"Median_Earnings_5yr":null,"Avg_GPA":3.7,"Avg_SAT":1275.0,"Fortune500_Hirers":[],"Total_Enrollment":3770,"Admission_Rate":0.5,"Avg_Net_Price":30617.0,"Latitude":42.249987,"Longitude":-71.823356},{"School":"nazareth university","Recommendation_Tier":"Strong Match (Good Earnings)","Has_Salary_Data":true,"Median_Earnings_1yr":37677.0,"Median_Earnings_5yr":46603.0,"Avg_GPA":3.6,"Avg_SAT":1188.0,"Fortune500_Hirers":["Paychex"],"Total_Enrollment":2522,"Admission_Rate":0.84,"Avg_Net_Price":29994.0,"Latitude":43.101576,"Longitude":-77.518579},{"School":"agnes scott college","Recommendation_Tier":"Strong Match","Has_Salary_Data":false,"Median_Earnings_1yr":null,"Median_Earnings_5yr":null,"Avg_GPA":3.7,"Avg_SAT":null,"Fortune500_Hirers":[],"Total_Enrollment":1114,"Admission_Rate":0.67,"Avg_Net_Price":20503.0,"Latitude":33.769268,"Longitude":-84.295459},{"School":"university of evansville","Recommendation_Tier":"Strong Match","Has_Salary_Data":false,"Median_Earnings_1yr":null,"Median_Earnings_5yr":null,"Avg_GPA":3.7,"Avg_SAT":1223.0,"Fortune500_Hirers":[],"Total_Enrollment":2017,"Admission_Rate":0.76,"Avg_Net_Price":23212.0,"Latitude":37.971549,"Longitude":-87.531644},{"School":"webster university","Recommendation_Tier":"Strong Match","Has_Salary_Data":false,"Median_Earnings_1yr":null,"Median_Earnings_5yr":null,"Avg_GPA":3.6,"Avg_SAT":1182.0,"Fortune500_Hirers":["Ameren","Centene Corporation"],"Total_Enrollment":6396,"Admission_Rate":0.55,"Avg_Net_Price":22768.0,"Latitude":38.588875,"Longitude":-90.345151},{"School":"yeshiva university","Recommendation_Tier":"Strong Match","Has_Salary_Data":false,"Median_Earnings_1yr":null,"Median_Earnings_5yr":null,"Avg_GPA":3.5,"Avg_SAT":1278.0,"Fortune500_Hirers":[],"Total_Enrollment":6056,"Admission_Rate":0.63,"Avg_Net_Price":38930.0,"Latitude":40.850605,"Longitude":-73.929873},{"School":"florida southern college","Recommendation_Tier":"Strong Match","Has_Salary_Data":false,"Median_Earnings_1yr":null,"Median_Earnings_5yr":null,"Avg_GPA":3.7,"Avg_SAT":1220.0,"Fortune500_Hirers":[],"Total_Enrollment":3281,"Admission_Rate":0.57,"Avg_Net_Price":27091.0,"Latitude":28.032443,"Longitude":-81.948203},{"School":"bryant university","Recommendation_Tier":"Strong Match","Has_Salary_Data":false,"Median_Earnings_1yr":null,"Median_Earnings_5yr":null,"Avg_GPA":3.5,"Avg_SAT":1220.0,"Fortune500_Hirers":["Hasbro","Waters Corporation","Citizens Financial Group","Hartford (The)","CVS Health","Travelers Companies (The)","TJX Companies"],"Total_Enrollment":3536,"Admission_Rate":0.69,"Avg_Net_Price":39919.0,"Latitude":41.920092,"Longitude":-71.539547},{"School":"lake forest college","Recommendation_Tier":"Strong Match","Has_Salary_Data":false,"Median_Earnings_1yr":null,"Median_Earnings_5yr":null,"Avg_GPA":3.7,"Avg_SAT":null,"Fortune500_Hirers":[],"Total_Enrollment":1753,"Admission_Rate":0.6,"Avg_Net_Price":26426.0,"Latitude":42.249574,"Longitude":-87.827454},{"School":"louisiana tech university","Recommendation_Tier":"Strong Match","Has_Salary_Data":false,"Median_Earnings_1yr":null,"Median_Earnings_5yr":null,"Avg_GPA":3.5,"Avg_SAT":1218.0,"Fortune500_Hirers":["Weyerhaeuser","International Paper","Entergy","Eastman Chemical Company"],"Total_Enrollment":10839,"Admission_Rate":0.62,"Avg_Net_Price":12084.0,"Latitude":32.528297,"Longitude":-92.649963},{"School":"manhattan college","Recommendation_Tier":"Strong Match","Has_Salary_Data":false,"Median_Earnings_1yr":null,"Median_Earnings_5yr":null,"Avg_GPA":3.6,"Avg_SAT":1178.0,"Fortune500_Hirers":[],"Total_Enrollment":3575,"Admission_Rate":0.82,"Avg_Net_Price":32044.0,"Latitude":40.889756,"Longitude":-73.901893},{"School":"texas tech university","Recommendation_Tier":"Strong Match (Good Earnings)","Has_Salary_Data":true,"Median_Earnings_1yr":38687.0,"Median_Earnings_5yr":56372.0,"Avg_GPA":3.7,"Avg_SAT":1181.0,"Fortune500_Hirers":["Texas Pacific Land Corporation","EOG Resources","Globe Life","Valero Energy","Vistra Corp.","ConocoPhillips","D. R. Horton","Kinder Morgan","Occidental Petroleum","Atmos Energy","ExxonMobil","Diamondback Energy","Coterra","Devon Energy","Texas Instruments"],"Total_Enrollment":40378,"Admission_Rate":0.67,"Avg_Net_Price":15452.0,"Latitude":33.583448,"Longitude":-101.874783},{"School":"letourneau university","Recommendation_Tier":"Strong Match","Has_Salary_Data":false,"Median_Earnings_1yr":null,"Median_Earnings_5yr":null,"Avg_GPA":3.7,"Avg_SAT":1215.0,"Fortune500_Hirers":[],"Total_Enrollment":3536,"Admission_Rate":0.49,"Avg_Net_Price":23196.0,"Latitude":32.46632,"Longitude":-94.726394},{"School":"carroll college","Recommendation_Tier":"Strong Match","Has_Salary_Data":false,"Median_Earnings_1yr":null,"Median_Earnings_5yr":null,"Avg_GPA":3.6,"Avg_SAT":1174.0,"Fortune500_Hirers":[],"Total_Enrollment":1168,"Admission_Rate":0.78,"Avg_Net_Price":23726.0,"Latitude":46.600771,"Longitude":-112.040285},{"School":"college of saint benedict","Recommendation_Tier":"Strong Match","Has_Salary_Data":false,"Median_Earnings_1yr":null,"Median_Earnings_5yr":null,"Avg_GPA":3.7,"Avg_SAT":1213.0,"Fortune500_Hirers":[],"Total_Enrollment":1470,"Admission_Rate":0.88,"Avg_Net_Price":27960.0,"Latitude":45.561792,"Longitude":-94.319888},{"School":"nebraska wesleyan university","Recommendation_Tier":"Strong Match","Has_Salary_Data":false,"Median_Earnings_1yr":null,"Median_Earnings_5yr":null,"Avg_GPA":3.7,"Avg_SAT":1211.0,"Fortune500_Hirers":[],"Total_Enrollment":1688,"Admission_Rate":0.81,"Avg_Net_Price":26576.0,"Latitude":40.839098,"Longitude":-96.64831},{"School":"westminster university","Recommendation_Tier":"Strong Match","Has_Salary_Data":false,"Median_Earnings_1yr":null,"Median_Earnings_5yr":null,"Avg_GPA":3.6,"Avg_SAT":1171.0,"Fortune500_Hirers":[],"Total_Enrollment":1280,"Admission_Rate":0.7,"Avg_Net_Price":25278.0,"Latitude":40.730779,"Longitude":-111.855757},{"School":"university of north carolina at charlotte","Recommendation_Tier":"Strong Match (Good Earnings)","Has_Salary_Data":true,"Median_Earnings_1yr":33791.0,"Median_Earnings_5yr":46923.0,"Avg_GPA":3.6,"Avg_SAT":1196.0,"Fortune500_Hirers":["United Rentals","Fastenal","Lowe's","Allstate","Hartford (The)","Wells Fargo","Trane Technologies","Xylem Inc.","Corning Inc.","Albemarle Corporation","Charter Communications","Ingersoll Rand","Kimco Realty","Truist Financial","Duke Energy","Bank of America"],"Total_Enrollment":29551,"Admission_Rate":0.8,"Avg_Net_Price":16029.0,"Latitude":35.306022,"Longitude":-80.730919},{"School":"augustana college","Recommendation_Tier":"Strong Match","Has_Salary_Data":false,"Median_Earnings_1yr":null,"Median_Earnings_5yr":null,"Avg_GPA":3.5,"Avg_SAT":1210.0,"Fortune500_Hirers":[],"Total_Enrollment":2349,"Admission_Rate":0.61,"Avg_Net_Price":23233.0,"Latitude":41.502365,"Longitude":-90.55057},{"School":"oklahoma christian university","Recommendation_Tier":"Strong Match","Has_Salary_Data":false,"Median_Earnings_1yr":null,"Median_Earnings_5yr":null,"Avg_GPA":3.6,"Avg_SAT":1170.0,"Fortune500_Hirers":["Devon Energy","Diamondback Energy"],"Total_Enrollment":2537,"Admission_Rate":0.96,"Avg_Net_Price":21347.0,"Latitude":35.611412,"Longitude":-97.469526},{"School":"bellarmine university","Recommendation_Tier":"Strong Match","Has_Salary_Data":false,"Median_Earnings_1yr":null,"Median_Earnings_5yr":null,"Avg_GPA":3.5,"Avg_SAT":1209.0,"Fortune500_Hirers":["Yum! Brands","Ventas","Humana","Brown–Forman"],"Total_Enrollment":2970,"Admission_Rate":0.88,"Avg_Net_Price":23121.0,"Latitude":38.219279,"Longitude":-85.704997},{"School":"grove city college","Recommendation_Tier":"Strong Match","Has_Salary_Data":false,"Median_Earnings_1yr":null,"Median_Earnings_5yr":null,"Avg_GPA":3.8,"Avg_SAT":1251.0,"Fortune500_Hirers":["NVR, Inc."],"Total_Enrollment":2316,"Admission_Rate":0.71,"Avg_Net_Price":24576.0,"Latitude":41.1558,"Longitude":-80.081481},{"School":"university of detroit mercy","Recommendation_Tier":"Strong Match","Has_Salary_Data":false,"Median_Earnings_1yr":null,"Median_Earnings_5yr":null,"Avg_GPA":3.6,"Avg_SAT":1168.0,"Fortune500_Hirers":["DTE Energy"],"Total_Enrollment":5360,"Admission_Rate":0.91,"Avg_Net_Price":18356.0,"Latitude":42.414222,"Longitude":-83.139158},{"School":"new jersey institute of technology","Recommendation_Tier":"Strong Match","Has_Salary_Data":false,"Median_Earnings_1yr":null,"Median_Earnings_5yr":null,"Avg_GPA":3.7,"Avg_SAT":1292.0,"Fortune500_Hirers":["Merck & Co.","Public Service Enterprise Group","Prudential Financial","Verizon","Fiserv","United Parcel Service","Bristol Myers Squibb"],"Total_Enrollment":12332,"Admission_Rate":0.66,"Avg_Net_Price":18328.0,"Latitude":40.741997,"Longitude":-74.177113},{"School":"milligan university","Recommendation_Tier":"Strong Match","Has_Salary_Data":false,"Median_Earnings_1yr":null,"Median_Earnings_5yr":null,"Avg_GPA":3.7,"Avg_SAT":1208.0,"Fortune500_Hirers":[],"Total_Enrollment":1105,"Admission_Rate":0.67,"Avg_Net_Price":19806.0,"Latitude":36.300147,"Longitude":-82.29407},{"School":"belmont university","Recommendation_Tier":"Strong Match","Has_Salary_Data":false,"Median_Earnings_1yr":null,"Median_Earnings_5yr":null,"Avg_GPA":3.8,"Avg_SAT":1253.0,"Fortune500_Hirers":["Tractor Supply","Live Nation Entertainment","HCA Healthcare"],"Total_Enrollment":8910,"Admission_Rate":0.96,"Avg_Net_Price":34368.0,"Latitude":36.135589,"Longitude":-86.794807},{"School":"centenary college of louisiana","Recommendation_Tier":"Strong Match","Has_Salary_Data":false,"Median_Earnings_1yr":null,"Median_Earnings_5yr":null,"Avg_GPA":3.5,"Avg_SAT":1207.0,"Fortune500_Hirers":[],"Total_Enrollment":556,"Admission_Rate":0.64,"Avg_Net_Price":24079.0,"Latitude":32.483335,"Longitude":-93.730834},{"School":"university of iowa","Recommendation_Tier":"Strong Match (Good Earnings)","Has_Salary_Data":true,"Median_Earnings_1yr":33117.0,"Median_Earnings_5yr":58682.0,"Avg_GPA":3.8,"Avg_SAT":1235.0,"Fortune500_Hirers":["Hormel Foods","Deere & Company","GoDaddy","Alliant Energy","Principal Financial Group","IDEX Corporation"],"Total_Enrollment":30015,"Admission_Rate":0.86,"Avg_Net_Price":17452.0,"Latitude":41.661935,"Longitude":-91.536425},{"School":"university of mobile","Recommendation_Tier":"Strong Match","Has_Salary_Data":false,"Median_Earnings_1yr":null,"Median_Earnings_5yr":null,"Avg_GPA":3.6,"Avg_SAT":1166.0,"Fortune500_Hirers":[],"Total_Enrollment":1804,"Admission_Rate":0.84,"Avg_Net_Price":17122.0,"Latitude":30.793247,"Longitude":-88.128934},{"School":"oglethorpe university","Recommendation_Tier":"Strong Match","Has_Salary_Data":false,"Median_Earnings_1yr":null,"Median_Earnings_5yr":null,"Avg_GPA":3.7,"Avg_SAT":1206.0,"Fortune500_Hirers":[],"Total_Enrollment":1491,"Admission_Rate":0.71,"Avg_Net_Price":22126.0,"Latitude":33.875441,"Longitude":-84.333687},{"School":"wartburg college","Recommendation_Tier":"Strong Match","Has_Salary_Data":false,"Median_Earnings_1yr":null,"Median_Earnings_5yr":null,"Avg_GPA":3.6,"Avg_SAT":1166.0,"Fortune500_Hirers":[],"Total_Enrollment":1444,"Admission_Rate":0.97,"Avg_Net_Price":23248.0,"Latitude":42.7277,"Longitude":-92.483387},{"School":"lyon college","Recommendation_Tier":"Strong Match","Has_Salary_Data":false,"Median_Earnings_1yr":null,"Median_Earnings_5yr":null,"Avg_GPA":3.6,"Avg_SAT":1165.0,"Fortune500_Hirers":[],"Total_Enrollment":496,"Admission_Rate":0.6,"Avg_Net_Price":20495.0,"Latitude":35.777619,"Longitude":-91.625354},{"School":"howard university","Recommendation_Tier":"Strong Match","Has_Salary_Data":false,"Median_Earnings_1yr":null,"Median_Earnings_5yr":null,"Avg_GPA":3.7,"Avg_SAT":1205.0,"Fortune500_Hirers":[],"Total_Enrollment":12886,"Admission_Rate":0.53,"Avg_Net_Price":23233.0,"Latitude":38.922392,"Longitude":-77.018966},{"School":"berry college","Recommendation_Tier":"Strong Match","Has_Salary_Data":false,"Median_Earnings_1yr":null,"Median_Earnings_5yr":null,"Avg_GPA":3.8,"Avg_SAT":1245.0,"Fortune500_Hirers":[],"Total_Enrollment":2360,"Admission_Rate":0.66,"Avg_Net_Price":24605.0,"Latitude":34.290414,"Longitude":-85.189202},{"School":"illinois wesleyan university","Recommendation_Tier":"Strong Match","Has_Salary_Data":false,"Median_Earnings_1yr":null,"Median_Earnings_5yr":null,"Avg_GPA":3.8,"Avg_SAT":1245.0,"Fortune500_Hirers":[],"Total_Enrollment":1527,"Admission_Rate":0.42,"Avg_Net_Price":32545.0,"Latitude":40.489901,"Longitude":-88.992014},{"School":"harding university","Recommendation_Tier":"Strong Match","Has_Salary_Data":false,"Median_Earnings_1yr":null,"Median_Earnings_5yr":null,"Avg_GPA":3.7,"Avg_SAT":1204.0,"Fortune500_Hirers":["J.B. Hunt"],"Total_Enrollment":4805,"Admission_Rate":0.45,"Avg_Net_Price":19375.0,"Latitude":35.247386,"Longitude":-91.726143},{"School":"abilene christian university","Recommendation_Tier":"Strong Match","Has_Salary_Data":false,"Median_Earnings_1yr":null,"Median_Earnings_5yr":null,"Avg_GPA":3.6,"Avg_SAT":1164.0,"Fortune500_Hirers":["Paramount Global","Texas Pacific Land Corporation"],"Total_Enrollment":4912,"Admission_Rate":0.7,"Avg_Net_Price":28725.0,"Latitude":32.468943,"Longitude":-99.709797},{"School":"george washington university","Recommendation_Tier":"Good Match (Good Earnings)","Has_Salary_Data":true,"Median_Earnings_1yr":38927.0,"Median_Earnings_5yr":73794.0,"Avg_GPA":3.7,"Avg_SAT":1395.0,"Fortune500_Hirers":[],"Total_Enrollment":25939,"Admission_Rate":0.49,"Avg_Net_Price":40308.0,"Latitude":38.89923,"Longitude":-77.048363},{"School":"rider university","Recommendation_Tier":"Good Match (Good Earnings)","Has_Salary_Data":true,"Median_Earnings_1yr":46393.0,"Median_Earnings_5yr":55702.0,"Avg_GPA":3.5,"Avg_SAT":1118.0,"Fortune500_Hirers":["Church & Dwight"],"Total_Enrollment":4054,"Admission_Rate":0.84,"Avg_Net_Price":29396.0,"Latitude":40.278796,"Longitude":-74.737833},{"School":"the college of new jersey","Recommendation_Tier":"Strong Match (Good Earnings)","Has_Salary_Data":true,"Median_Earnings_1yr":26218.0,"Median_Earnings_5yr":59014.0,"Avg_GPA":3.7,"Avg_SAT":1267.0,"Fortune500_Hirers":["Kenvue"],"Total_Enrollment":7629,"Admission_Rate":0.64,"Avg_Net_Price":24617.0,"Latitude":40.268651,"Longitude":-74.778791},{"School":"clarkson university","Recommendation_Tier":"Strong Match","Has_Salary_Data":false,"Median_Earnings_1yr":null,"Median_Earnings_5yr":null,"Avg_GPA":3.8,"Avg_SAT":1258.0,"Fortune500_Hirers":["Corning Inc.","TransDigm Group"],"Total_Enrollment":3719,"Admission_Rate":0.78,"Avg_Net_Price":29015.0,"Latitude":44.662716,"Longitude":-74.999359},{"School":"valparaiso university","Recommendation_Tier":"Strong Match","Has_Salary_Data":false,"Median_Earnings_1yr":null,"Median_Earnings_5yr":null,"Avg_GPA":3.7,"Avg_SAT":1202.0,"Fortune500_Hirers":["NiSource"],"Total_Enrollment":2958,"Admission_Rate":0.94,"Avg_Net_Price":22500.0,"Latitude":41.462239,"Longitude":-87.040172},{"School":"dordt university","Recommendation_Tier":"Strong Match","Has_Salary_Data":false,"Median_Earnings_1yr":null,"Median_Earnings_5yr":null,"Avg_GPA":3.7,"Avg_SAT":1202.0,"Fortune500_Hirers":[],"Total_Enrollment":1861,"Admission_Rate":0.88,"Avg_Net_Price":25982.0,"Latitude":43.082527,"Longitude":-96.166562},{"School":"union university","Recommendation_Tier":"Strong Match","Has_Salary_Data":false,"Median_Earnings_1yr":null,"Median_Earnings_5yr":null,"Avg_GPA":3.8,"Avg_SAT":1259.0,"Fortune500_Hirers":["FedEx"],"Total_Enrollment":2731,"Admission_Rate":0.53,"Avg_Net_Price":26906.0,"Latitude":35.676896,"Longitude":-88.858524},{"School":"oral roberts university","Recommendation_Tier":"Strong Match","Has_Salary_Data":false,"Median_Earnings_1yr":null,"Median_Earnings_5yr":null,"Avg_GPA":3.6,"Avg_SAT":1160.0,"Fortune500_Hirers":[],"Total_Enrollment":5936,"Admission_Rate":0.78,"Avg_Net_Price":20461.0,"Latitude":36.049129,"Longitude":-95.952547},{"School":"hollins university","Recommendation_Tier":"Strong Match","Has_Salary_Data":false,"Median_Earnings_1yr":null,"Median_Earnings_5yr":null,"Avg_GPA":3.7,"Avg_SAT":1200.0,"Fortune500_Hirers":[],"Total_Enrollment":803,"Admission_Rate":0.72,"Avg_Net_Price":19315.0,"Latitude":37.354201,"Longitude":-79.943277},{"School":"university of utah","Recommendation_Tier":"Strong Match","Has_Salary_Data":true,"Median_Earnings_1yr":28277.0,"Median_Earnings_5yr":51794.0,"Avg_GPA":3.7,"Avg_SAT":1242.0,"Fortune500_Hirers":["Discover Financial","eBay","L3Harris","AES Corporation","Becton Dickinson","NRG Energy","Williams Companies","Edwards Lifesciences","Extra Space Storage"],"Total_Enrollment":34734,"Admission_Rate":0.89,"Avg_Net_Price":12881.0,"Latitude":40.762484,"Longitude":-111.846044},{"School":"hope college","Recommendation_Tier":"Strong Match","Has_Salary_Data":false,"Median_Earnings_1yr":null,"Median_Earnings_5yr":null,"Avg_GPA":3.8,"Avg_SAT":1238.0,"Fortune500_Hirers":[],"Total_Enrollment":3251,"Admission_Rate":0.8,"Avg_Net_Price":30320.0,"Latitude":42.787247,"Longitude":-86.100971},{"School":"biola university","Recommendation_Tier":"Strong Match","Has_Salary_Data":false,"Median_Earnings_1yr":null,"Median_Earnings_5yr":null,"Avg_GPA":3.7,"Avg_SAT":1198.0,"Fortune500_Hirers":[],"Total_Enrollment":5387,"Admission_Rate":0.57,"Avg_Net_Price":34713.0,"Latitude":33.906203,"Longitude":-118.014374},{"School":"saint anselm college","Recommendation_Tier":"Strong Match (Good Earnings)","Has_Salary_Data":true,"Median_Earnings_1yr":32228.0,"Median_Earnings_5yr":60766.0,"Avg_GPA":3.4,"Avg_SAT":1224.0,"Fortune500_Hirers":[],"Total_Enrollment":1977,"Admission_Rate":0.82,"Avg_Net_Price":33292.0,"Latitude":42.986889,"Longitude":-71.503622},{"School":"john brown university","Recommendation_Tier":"Strong Match","Has_Salary_Data":false,"Median_Earnings_1yr":null,"Median_Earnings_5yr":null,"Avg_GPA":3.8,"Avg_SAT":1237.0,"Fortune500_Hirers":["J.B. Hunt","Tyson Foods"],"Total_Enrollment":2326,"Admission_Rate":0.57,"Avg_Net_Price":21963.0,"Latitude":36.189812,"Longitude":-94.560283},{"School":"utah state university","Recommendation_Tier":"Strong Match","Has_Salary_Data":true,"Median_Earnings_1yr":31768.0,"Median_Earnings_5yr":44129.0,"Avg_GPA":3.6,"Avg_SAT":1201.0,"Fortune500_Hirers":["NRG Energy","Verisk Analytics","Extra Space Storage","Nucor"],"Total_Enrollment":27943,"Admission_Rate":0.94,"Avg_Net_Price":13530.0,"Latitude":41.740748,"Longitude":-111.81391},{"School":"illinois state university","Recommendation_Tier":"Strong Match (Good Earnings)","Has_Salary_Data":true,"Median_Earnings_1yr":40465.0,"Median_Earnings_5yr":48171.0,"Avg_GPA":3.6,"Avg_SAT":1132.0,"Fortune500_Hirers":["Allstate","Discover Financial","CDW","Loews Corporation","Travelers Companies (The)","Archer Daniels Midland","Ulta Beauty","Arch Capital Group","McDonald's","Caterpillar Inc.","W. W. Grainger"],"Total_Enrollment":20683,"Admission_Rate":0.86,"Avg_Net_Price":20933.0,"Latitude":40.509403,"Longitude":-88.990058},{"School":"ave maria university","Recommendation_Tier":"Strong Match","Has_Salary_Data":false,"Median_Earnings_1yr":null,"Median_Earnings_5yr":null,"Avg_GPA":3.6,"Avg_SAT":1155.0,"Fortune500_Hirers":[],"Total_Enrollment":1310,"Admission_Rate":0.44,"Avg_Net_Price":19226.0,"Latitude":26.335983,"Longitude":-81.438945},{"School":"saint johns university","Recommendation_Tier":"Strong Match","Has_Salary_Data":false,"Median_Earnings_1yr":null,"Median_Earnings_5yr":null,"Avg_GPA":3.5,"Avg_SAT":1194.0,"Fortune500_Hirers":[],"Total_Enrollment":1645,"Admission_Rate":0.86,"Avg_Net_Price":24271.0,"Latitude":45.580075,"Longitude":-94.393621},{"School":"lipscomb university","Recommendation_Tier":"Strong Match","Has_Salary_Data":false,"Median_Earnings_1yr":null,"Median_Earnings_5yr":null,"Avg_GPA":3.8,"Avg_SAT":1234.0,"Fortune500_Hirers":["Tractor Supply","HCA Healthcare"],"Total_Enrollment":4704,"Admission_Rate":0.71,"Avg_Net_Price":26421.0,"Latitude":36.106253,"Longitude":-86.799791},{"School":"university of arizona","Recommendation_Tier":"Strong Match (Good Earnings)","Has_Salary_Data":true,"Median_Earnings_1yr":30592.0,"Median_Earnings_5yr":49272.0,"Avg_GPA":3.5,"Avg_SAT":1228.0,"Fortune500_Hirers":["Microchip Technology","Intuit","Vulcan Materials Company","Freeport-McMoRan","Invitation Homes","Pinnacle West","RTX Corporation","Waste Management","Gen Digital","GoDaddy","Republic Services","Paychex","Axon Enterprise"],"Total_Enrollment":49403,"Admission_Rate":0.87,"Avg_Net_Price":15620.0,"Latitude":32.232672,"Longitude":-110.950815},{"School":"mississippi state university","Recommendation_Tier":"Strong Match","Has_Salary_Data":true,"Median_Earnings_1yr":28295.0,"Median_Earnings_5yr":36014.0,"Avg_GPA":3.6,"Avg_SAT":1246.0,"Fortune500_Hirers":["United Rentals","International Paper","Packaging Corporation of America","CF Industries","Steel Dynamics","Mid-America Apartment Communities","Weyerhaeuser","Entergy","FedEx"],"Total_Enrollment":22649,"Admission_Rate":0.75,"Avg_Net_Price":16402.0,"Latitude":33.454852,"Longitude":-88.790139},{"School":"george mason university","Recommendation_Tier":"Strong Match (Good Earnings)","Has_Salary_Data":true,"Median_Earnings_1yr":25992.0,"Median_Earnings_5yr":58724.0,"Avg_GPA":3.7,"Avg_SAT":1222.0,"Fortune500_Hirers":["AvalonBay Communities","CoStar Group","Quest Diagnostics","NVR, Inc.","Verisign","Leidos","General Dynamics","Host Hotels & Resorts","Digital Realty"],"Total_Enrollment":39049,"Admission_Rate":0.9,"Avg_Net_Price":18285.0,"Latitude":38.83195,"Longitude":-77.307063},{"School":"quinnipiac university","Recommendation_Tier":"Strong Match","Has_Salary_Data":false,"Median_Earnings_1yr":null,"Median_Earnings_5yr":null,"Avg_GPA":3.5,"Avg_SAT":1190.0,"Fortune500_Hirers":["Travelers Companies (The)","Hartford (The)"],"Total_Enrollment":8788,"Admission_Rate":0.72,"Avg_Net_Price":41815.0,"Latitude":41.418915,"Longitude":-72.894117},{"School":"ohio northern university","Recommendation_Tier":"Strong Match","Has_Salary_Data":false,"Median_Earnings_1yr":null,"Median_Earnings_5yr":null,"Avg_GPA":3.8,"Avg_SAT":1229.0,"Fortune500_Hirers":["Marathon Petroleum"],"Total_Enrollment":3015,"Admission_Rate":0.54,"Avg_Net_Price":24072.0,"Latitude":40.7662,"Longitude":-83.827441},{"School":"university of north texas","Recommendation_Tier":"Strong Match (Good Earnings)","Has_Salary_Data":true,"Median_Earnings_1yr":36568.0,"Median_Earnings_5yr":54740.0,"Avg_GPA":3.5,"Avg_SAT":1166.0,"Fortune500_Hirers":["Texas Pacific Land Corporation","Globe Life","Fastenal","Vistra Corp.","J.B. Hunt","D. R. Horton","Invitation Homes","Paccar","Yum! Brands","Allstate","Southwest Airlines","Martin Marietta Materials","Mid-America Apartment Communities","Jack Henry & Associates","Textron","McKesson Corporation","Ulta Beauty","Atmos Energy","Darden Restaurants","Builders FirstSource","Digital Realty","Charles Schwab Corporation","Keurig Dr Pepper","Lennox International","Match Group","Genuine Parts Company","Cencora","Texas Instruments","Hilton Worldwide","Mohawk Industries","Domino's","Copart"],"Total_Enrollment":44767,"Admission_Rate":0.79,"Avg_Net_Price":13781.0,"Latitude":33.211178,"Longitude":-97.148422},{"School":"elizabethtown college","Recommendation_Tier":"Strong Match","Has_Salary_Data":false,"Median_Earnings_1yr":null,"Median_Earnings_5yr":null,"Avg_GPA":3.7,"Avg_SAT":1188.0,"Fortune500_Hirers":["Hershey Company (The)"],"Total_Enrollment":2021,"Admission_Rate":0.81,"Avg_Net_Price":25767.0,"Latitude":40.149236,"Longitude":-76.593224},{"School":"university of rhode island","Recommendation_Tier":"Strong Match (Good Earnings)","Has_Salary_Data":true,"Median_Earnings_1yr":34319.0,"Median_Earnings_5yr":49879.0,"Avg_GPA":3.6,"Avg_SAT":1156.0,"Fortune500_Hirers":["Hasbro","Waters Corporation","Citizens Financial Group","CVS Health","Moderna","TJX Companies","Vertex Pharmaceuticals"],"Total_Enrollment":17473,"Admission_Rate":0.76,"Avg_Net_Price":15386.0,"Latitude":41.484691,"Longitude":-71.527356},{"School":"university of north dakota","Recommendation_Tier":"Strong Match","Has_Salary_Data":false,"Median_Earnings_1yr":null,"Median_Earnings_5yr":null,"Avg_GPA":3.6,"Avg_SAT":1147.0,"Fortune500_Hirers":["Ameriprise Financial","Delta Air Lines","Hess Corporation","United Airlines Holdings"],"Total_Enrollment":13876,"Admission_Rate":0.83,"Avg_Net_Price":16780.0,"Latitude":47.921654,"Longitude":-97.071738},{"School":"wisconsin lutheran college","Recommendation_Tier":"Strong Match","Has_Salary_Data":false,"Median_Earnings_1yr":null,"Median_Earnings_5yr":null,"Avg_GPA":3.5,"Avg_SAT":1187.0,"Fortune500_Hirers":[],"Total_Enrollment":1086,"Admission_Rate":0.94,"Avg_Net_Price":20899.0,"Latitude":43.036943,"Longitude":-88.022718},{"School":"university of redlands","Recommendation_Tier":"Strong Match","Has_Salary_Data":false,"Median_Earnings_1yr":null,"Median_Earnings_5yr":null,"Avg_GPA":3.7,"Avg_SAT":1186.0,"Fortune500_Hirers":["Edison International"],"Total_Enrollment":3460,"Admission_Rate":0.82,"Avg_Net_Price":30240.0,"Latitude":34.064218,"Longitude":-117.163218},{"School":"capital university","Recommendation_Tier":"Strong Match","Has_Salary_Data":false,"Median_Earnings_1yr":null,"Median_Earnings_5yr":null,"Avg_GPA":3.6,"Avg_SAT":1146.0,"Fortune500_Hirers":["American Electric Power"],"Total_Enrollment":2617,"Admission_Rate":0.72,"Avg_Net_Price":22642.0,"Latitude":39.954875,"Longitude":-82.937867},{"School":"the college of saint scholastica","Recommendation_Tier":"Strong Match","Has_Salary_Data":false,"Median_Earnings_1yr":null,"Median_Earnings_5yr":null,"Avg_GPA":3.5,"Avg_SAT":1185.0,"Fortune500_Hirers":[],"Total_Enrollment":3207,"Admission_Rate":0.97,"Avg_Net_Price":23215.0,"Latitude":46.816082,"Longitude":-92.106134},{"School":"st catherine university","Recommendation_Tier":"Strong Match","Has_Salary_Data":false,"Median_Earnings_1yr":null,"Median_Earnings_5yr":null,"Avg_GPA":3.5,"Avg_SAT":1184.0,"Fortune500_Hirers":[],"Total_Enrollment":3577,"Admission_Rate":0.93,"Avg_Net_Price":19078.0,"Latitude":44.924926,"Longitude":-93.183761},{"School":"the university of texas at dallas","Recommendation_Tier":"Good Match (Good Earnings)","Has_Salary_Data":true,"Median_Earnings_1yr":37450.0,"Median_Earnings_5yr":69862.0,"Avg_GPA":3.8,"Avg_SAT":1355.0,"Fortune500_Hirers":["Paycom","Globe Life","Vistra Corp.","Gartner","Invitation Homes","Keurig Dr Pepper","Lennox International","Match Group","Skyworks Solutions","McKesson Corporation","Welltower","Walmart","Copart","Texas Instruments"],"Total_Enrollment":31570,"Admission_Rate":0.85,"Avg_Net_Price":11185.0,"Latitude":32.984673,"Longitude":-96.749702},{"School":"roberts wesleyan university","Recommendation_Tier":"Strong Match","Has_Salary_Data":false,"Median_Earnings_1yr":null,"Median_Earnings_5yr":null,"Avg_GPA":3.6,"Avg_SAT":1143.0,"Fortune500_Hirers":["Paychex"],"Total_Enrollment":1573,"Admission_Rate":1.0,"Avg_Net_Price":23569.0,"Latitude":43.125755,"Longitude":-77.798498},{"School":"oklahoma city university","Recommendation_Tier":"Strong Match","Has_Salary_Data":false,"Median_Earnings_1yr":null,"Median_Earnings_5yr":null,"Avg_GPA":3.8,"Avg_SAT":1223.0,"Fortune500_Hirers":["Devon Energy","Diamondback Energy"],"Total_Enrollment":2550,"Admission_Rate":0.7,"Avg_Net_Price":25072.0,"Latitude":35.495271,"Longitude":-97.541242},{"School":"saint vincent college","Recommendation_Tier":"Strong Match","Has_Salary_Data":false,"Median_Earnings_1yr":null,"Median_Earnings_5yr":null,"Avg_GPA":3.6,"Avg_SAT":1143.0,"Fortune500_Hirers":[],"Total_Enrollment":1536,"Admission_Rate":0.73,"Avg_Net_Price":16634.0,"Latitude":40.29265,"Longitude":-79.403762},{"School":"whitworth university","Recommendation_Tier":"Strong Match","Has_Salary_Data":false,"Median_Earnings_1yr":null,"Median_Earnings_5yr":null,"Avg_GPA":3.7,"Avg_SAT":1183.0,"Fortune500_Hirers":[],"Total_Enrollment":2415,"Admission_Rate":0.91,"Avg_Net_Price":25785.0,"Latitude":47.753358,"Longitude":-117.416714},{"School":"university of nebraska at kearney","Recommendation_Tier":"Strong Match (Good Earnings)","Has_Salary_Data":true,"Median_Earnings_1yr":39340.0,"Median_Earnings_5yr":52940.0,"Avg_GPA":3.5,"Avg_SAT":1148.0,"Fortune500_Hirers":["Union Pacific Corporation"],"Total_Enrollment":6041,"Admission_Rate":0.86,"Avg_Net_Price":16017.0,"Latitude":40.701452,"Longitude":-99.098699},{"School":"montana state university","Recommendation_Tier":"Strong Match","Has_Salary_Data":true,"Median_Earnings_1yr":29692.0,"Median_Earnings_5yr":45865.0,"Avg_GPA":3.6,"Avg_SAT":1193.0,"Fortune500_Hirers":[],"Total_Enrollment":17144,"Admission_Rate":0.81,"Avg_Net_Price":17656.0,"Latitude":45.666726,"Longitude":-111.048812},{"School":"university of toledo","Recommendation_Tier":"Strong Match","Has_Salary_Data":false,"Median_Earnings_1yr":null,"Median_Earnings_5yr":null,"Avg_GPA":3.6,"Avg_SAT":1142.0,"Fortune500_Hirers":[],"Total_Enrollment":15545,"Admission_Rate":0.92,"Avg_Net_Price":17793.0,"Latitude":41.660572,"Longitude":-83.614714},{"School":"geneva college","Recommendation_Tier":"Strong Match","Has_Salary_Data":false,"Median_Earnings_1yr":null,"Median_Earnings_5yr":null,"Avg_GPA":3.6,"Avg_SAT":1142.0,"Fortune500_Hirers":[],"Total_Enrollment":1232,"Admission_Rate":0.79,"Avg_Net_Price":19778.0,"Latitude":40.772518,"Longitude":-80.321826},{"School":"southern methodist university","Recommendation_Tier":"Good Match (Good Earnings)","Has_Salary_Data":true,"Median_Earnings_1yr":33550.0,"Median_Earnings_5yr":79519.0,"Avg_GPA":3.7,"Avg_SAT":1405.0,"Fortune500_Hirers":["Yum! Brands","Globe Life","Vistra Corp.","Keurig Dr Pepper","Lockheed Martin","Match Group","Copart","Texas Instruments"],"Total_Enrollment":12053,"Admission_Rate":0.52,"Avg_Net_Price":41444.0,"Latitude":32.843612,"Longitude":-96.783365},{"School":"michigan technological university","Recommendation_Tier":"Strong Match","Has_Salary_Data":false,"Median_Earnings_1yr":null,"Median_Earnings_5yr":null,"Avg_GPA":3.8,"Avg_SAT":1221.0,"Fortune500_Hirers":["Howmet Aerospace","Packaging Corporation of America","Kimberly-Clark","Cummins","CMS Energy","DTE Energy"],"Total_Enrollment":7063,"Admission_Rate":0.94,"Avg_Net_Price":16463.0,"Latitude":47.11866,"Longitude":-88.548092},{"School":"maryville college","Recommendation_Tier":"Strong Match","Has_Salary_Data":false,"Median_Earnings_1yr":null,"Median_Earnings_5yr":null,"Avg_GPA":3.5,"Avg_SAT":1181.0,"Fortune500_Hirers":[],"Total_Enrollment":1069,"Admission_Rate":0.7,"Avg_Net_Price":19548.0,"Latitude":35.751505,"Longitude":-83.964223},{"School":"linfield university","Recommendation_Tier":"Strong Match","Has_Salary_Data":false,"Median_Earnings_1yr":null,"Median_Earnings_5yr":null,"Avg_GPA":3.6,"Avg_SAT":1140.0,"Fortune500_Hirers":[],"Total_Enrollment":1754,"Admission_Rate":0.89,"Avg_Net_Price":27951.0,"Latitude":45.201173,"Longitude":-123.199642},{"School":"syracuse university","Recommendation_Tier":"Strong Match (Good Earnings)","Has_Salary_Data":true,"Median_Earnings_1yr":34610.0,"Median_Earnings_5yr":54449.0,"Avg_GPA":3.8,"Avg_SAT":1291.0,"Fortune500_Hirers":["Walt Disney Company (The)","Interpublic Group of Companies (The)","Fox Corporation (Class A)","Warner Bros. Discovery","Fox Corporation (Class B)"],"Total_Enrollment":22698,"Admission_Rate":0.52,"Avg_Net_Price":47177.0,"Latitude":43.036644,"Longitude":-76.133989},{"School":"hofstra university","Recommendation_Tier":"Strong Match (Good Earnings)","Has_Salary_Data":true,"Median_Earnings_1yr":23113.0,"Median_Earnings_5yr":67298.0,"Avg_GPA":3.8,"Avg_SAT":1262.0,"Fortune500_Hirers":["Henry Schein","Estée Lauder Companies (The)","Kimco Realty","Fox Corporation (Class A)","Fox Corporation (Class B)"],"Total_Enrollment":10238,"Admission_Rate":0.69,"Avg_Net_Price":53310.0,"Latitude":40.715959,"Longitude":-73.60078},{"School":"university of san francisco","Recommendation_Tier":"Strong Match","Has_Salary_Data":true,"Median_Earnings_1yr":19222.0,"Median_Earnings_5yr":63345.0,"Avg_GPA":3.7,"Avg_SAT":1236.0,"Fortune500_Hirers":["Digital Realty"],"Total_Enrollment":9688,"Admission_Rate":0.71,"Avg_Net_Price":42801.0,"Latitude":37.776618,"Longitude":-122.450477},{"School":"maryville university of saint louis","Recommendation_Tier":"Strong Match","Has_Salary_Data":false,"Median_Earnings_1yr":null,"Median_Earnings_5yr":null,"Avg_GPA":3.6,"Avg_SAT":1137.0,"Fortune500_Hirers":["Ameren"],"Total_Enrollment":9959,"Admission_Rate":0.88,"Avg_Net_Price":29064.0,"Latitude":38.644774,"Longitude":-90.505998},{"School":"lafayette college","Recommendation_Tier":"Strong Match","Has_Salary_Data":false,"Median_Earnings_1yr":null,"Median_Earnings_5yr":null,"Avg_GPA":3.6,"Avg_SAT":1363.0,"Fortune500_Hirers":[],"Total_Enrollment":2729,"Admission_Rate":0.34,"Avg_Net_Price":28735.0,"Latitude":40.69956,"Longitude":-75.209786},{"School":"university of north carolina at greensboro","Recommendation_Tier":"Strong Match","Has_Salary_Data":true,"Median_Earnings_1yr":25089.0,"Median_Earnings_5yr":42385.0,"Avg_GPA":3.6,"Avg_SAT":1228.0,"Fortune500_Hirers":["Old Dominion","LabCorp","Lowe's","Ralph Lauren Corporation","Arch Capital Group","Truist Financial"],"Total_Enrollment":17978,"Admission_Rate":0.92,"Avg_Net_Price":9853.0,"Latitude":36.068236,"Longitude":-79.809414},{"School":"kalamazoo college","Recommendation_Tier":"Strong Match","Has_Salary_Data":false,"Median_Earnings_1yr":null,"Median_Earnings_5yr":null,"Avg_GPA":3.8,"Avg_SAT":1284.0,"Fortune500_Hirers":[],"Total_Enrollment":1210,"Admission_Rate":0.79,"Avg_Net_Price":22808.0,"Latitude":42.290789,"Longitude":-85.601857},{"School":"niagara university","Recommendation_Tier":"Strong Match","Has_Salary_Data":false,"Median_Earnings_1yr":null,"Median_Earnings_5yr":null,"Avg_GPA":3.6,"Avg_SAT":1136.0,"Fortune500_Hirers":["M&T Bank"],"Total_Enrollment":3858,"Admission_Rate":0.9,"Avg_Net_Price":19172.0,"Latitude":43.137279,"Longitude":-79.036689},{"School":"university of puget sound","Recommendation_Tier":"Strong Match (Good Earnings)","Has_Salary_Data":true,"Median_Earnings_1yr":29909.0,"Median_Earnings_5yr":null,"Avg_GPA":3.6,"Avg_SAT":1250.0,"Fortune500_Hirers":[],"Total_Enrollment":2023,"Admission_Rate":0.83,"Avg_Net_Price":38127.0,"Latitude":47.26308,"Longitude":-122.478982},{"School":"sacred heart university","Recommendation_Tier":"Strong Match","Has_Salary_Data":false,"Median_Earnings_1yr":null,"Median_Earnings_5yr":null,"Avg_GPA":3.7,"Avg_SAT":1175.0,"Fortune500_Hirers":[],"Total_Enrollment":10721,"Admission_Rate":0.66,"Avg_Net_Price":43313.0,"Latitude":41.220893,"Longitude":-73.243332},{"School":"susquehanna university","Recommendation_Tier":"Strong Match","Has_Salary_Data":false,"Median_Earnings_1yr":null,"Median_Earnings_5yr":null,"Avg_GPA":3.7,"Avg_SAT":1175.0,"Fortune500_Hirers":[],"Total_Enrollment":2231,"Admission_Rate":0.77,"Avg_Net_Price":26597.0,"Latitude":40.797502,"Longitude":-76.875329},{"School":"roger williams university","Recommendation_Tier":"Strong Match","Has_Salary_Data":false,"Median_Earnings_1yr":null,"Median_Earnings_5yr":null,"Avg_GPA":3.4,"Avg_SAT":null,"Fortune500_Hirers":[],"Total_Enrollment":4397,"Admission_Rate":0.91,"Avg_Net_Price":36456.0,"Latitude":41.650214,"Longitude":-71.260374},{"School":"seattle pacific university","Recommendation_Tier":"Strong Match","Has_Salary_Data":false,"Median_Earnings_1yr":null,"Median_Earnings_5yr":null,"Avg_GPA":3.6,"Avg_SAT":1135.0,"Fortune500_Hirers":[],"Total_Enrollment":3118,"Admission_Rate":0.91,"Avg_Net_Price":28367.0,"Latitude":47.650214,"Longitude":-122.361667},{"School":"citadel military college of south carolina","Recommendation_Tier":"Good Match (Good Earnings)","Has_Salary_Data":true,"Median_Earnings_1yr":42712.0,"Median_Earnings_5yr":59089.0,"Avg_GPA":3.8,"Avg_SAT":1138.0,"Fortune500_Hirers":[],"Total_Enrollment":3721,"Admission_Rate":0.99,"Avg_Net_Price":18548.0,"Latitude":32.797183,"Longitude":-79.958775},{"School":"university at albany","Recommendation_Tier":"Strong Match (Good Earnings)","Has_Salary_Data":true,"Median_Earnings_1yr":32174.0,"Median_Earnings_5yr":54941.0,"Avg_GPA":3.7,"Avg_SAT":1177.0,"Fortune500_Hirers":["Henry Schein","Regeneron Pharmaceuticals"],"Total_Enrollment":16658,"Admission_Rate":0.68,"Avg_Net_Price":14486.0,"Latitude":42.685489,"Longitude":-73.824662},{"School":"marietta college","Recommendation_Tier":"Strong Match","Has_Salary_Data":false,"Median_Earnings_1yr":null,"Median_Earnings_5yr":null,"Avg_GPA":3.6,"Avg_SAT":1134.0,"Fortune500_Hirers":["EQT Corporation"],"Total_Enrollment":1198,"Admission_Rate":0.83,"Avg_Net_Price":20786.0,"Latitude":39.41668,"Longitude":-81.450045},{"School":"duquesne university","Recommendation_Tier":"Strong Match (Good Earnings)","Has_Salary_Data":true,"Median_Earnings_1yr":29451.0,"Median_Earnings_5yr":58592.0,"Avg_GPA":3.8,"Avg_SAT":1221.0,"Fortune500_Hirers":["PNC Financial Services","EQT Corporation","Crown Castle"],"Total_Enrollment":8107,"Admission_Rate":0.87,"Avg_Net_Price":32408.0,"Latitude":40.43589,"Longitude":-79.993123},{"School":"millsaps college","Recommendation_Tier":"Strong Match","Has_Salary_Data":false,"Median_Earnings_1yr":null,"Median_Earnings_5yr":null,"Avg_GPA":3.7,"Avg_SAT":1173.0,"Fortune500_Hirers":[],"Total_Enrollment":661,"Admission_Rate":0.68,"Avg_Net_Price":23821.0,"Latitude":32.322746,"Longitude":-90.179957},{"School":"messiah university","Recommendation_Tier":"Strong Match","Has_Salary_Data":false,"Median_Earnings_1yr":null,"Median_Earnings_5yr":null,"Avg_GPA":3.8,"Avg_SAT":1213.0,"Fortune500_Hirers":[],"Total_Enrollment":3231,"Admission_Rate":0.79,"Avg_Net_Price":28141.0,"Latitude":40.156579,"Longitude":-76.988269},{"School":"york college of pennsylvania","Recommendation_Tier":"Strong Match","Has_Salary_Data":false,"Median_Earnings_1yr":null,"Median_Earnings_5yr":null,"Avg_GPA":3.6,"Avg_SAT":1132.0,"Fortune500_Hirers":[],"Total_Enrollment":3656,"Admission_Rate":0.96,"Avg_Net_Price":22876.0,"Latitude":39.94614,"Longitude":-76.727984},{"School":"spring hill college","Recommendation_Tier":"Strong Match","Has_Salary_Data":false,"Median_Earnings_1yr":null,"Median_Earnings_5yr":null,"Avg_GPA":3.6,"Avg_SAT":1131.0,"Fortune500_Hirers":[],"Total_Enrollment":1046,"Admission_Rate":0.73,"Avg_Net_Price":22221.0,"Latitude":30.694751,"Longitude":-88.138199},{"School":"lewis university","Recommendation_Tier":"Strong Match","Has_Salary_Data":false,"Median_Earnings_1yr":null,"Median_Earnings_5yr":null,"Avg_GPA":3.6,"Avg_SAT":1131.0,"Fortune500_Hirers":["United Airlines Holdings"],"Total_Enrollment":6513,"Admission_Rate":0.74,"Avg_Net_Price":18664.0,"Latitude":41.605432,"Longitude":-88.079032},{"School":"alma college","Recommendation_Tier":"Strong Match","Has_Salary_Data":false,"Median_Earnings_1yr":null,"Median_Earnings_5yr":null,"Avg_GPA":3.6,"Avg_SAT":1131.0,"Fortune500_Hirers":[],"Total_Enrollment":1260,"Admission_Rate":0.65,"Avg_Net_Price":22449.0,"Latitude":43.38004,"Longitude":-84.672053},{"School":"mount vernon nazarene university","Recommendation_Tier":"Strong Match","Has_Salary_Data":false,"Median_Earnings_1yr":null,"Median_Earnings_5yr":null,"Avg_GPA":3.6,"Avg_SAT":1129.0,"Fortune500_Hirers":[],"Total_Enrollment":1941,"Admission_Rate":0.85,"Avg_Net_Price":20282.0,"Latitude":40.372901,"Longitude":-82.471074},{"School":"moravian university","Recommendation_Tier":"Strong Match","Has_Salary_Data":false,"Median_Earnings_1yr":null,"Median_Earnings_5yr":null,"Avg_GPA":3.6,"Avg_SAT":1129.0,"Fortune500_Hirers":["Air Products"],"Total_Enrollment":2533,"Admission_Rate":0.67,"Avg_Net_Price":28924.0,"Latitude":40.630947,"Longitude":-75.383638},{"School":"university at buffalo","Recommendation_Tier":"Strong Match","Has_Salary_Data":true,"Median_Earnings_1yr":28857.0,"Median_Earnings_5yr":50679.0,"Avg_GPA":3.8,"Avg_SAT":1254.0,"Fortune500_Hirers":["KeyCorp","Linde plc","Constellation Brands","Thermo Fisher Scientific","M&T Bank","Corning Inc.","Ingersoll Rand","Paychex"],"Total_Enrollment":32099,"Admission_Rate":0.68,"Avg_Net_Price":18119.0,"Latitude":43.000942,"Longitude":-78.789458},{"School":"springfield college","Recommendation_Tier":"Strong Match","Has_Salary_Data":false,"Median_Earnings_1yr":null,"Median_Earnings_5yr":null,"Avg_GPA":3.6,"Avg_SAT":1128.0,"Fortune500_Hirers":[],"Total_Enrollment":2921,"Admission_Rate":0.76,"Avg_Net_Price":30134.0,"Latitude":42.1022,"Longitude":-72.556647},{"School":"south dakota state university","Recommendation_Tier":"Strong Match (Good Earnings)","Has_Salary_Data":true,"Median_Earnings_1yr":33135.0,"Median_Earnings_5yr":51355.0,"Avg_GPA":3.6,"Avg_SAT":1136.0,"Fortune500_Hirers":[],"Total_Enrollment":11327,"Admission_Rate":0.86,"Avg_Net_Price":19252.0,"Latitude":44.317485,"Longitude":-96.782139},{"School":"depauw university","Recommendation_Tier":"Strong Match","Has_Salary_Data":false,"Median_Earnings_1yr":null,"Median_Earnings_5yr":null,"Avg_GPA":3.9,"Avg_SAT":1253.0,"Fortune500_Hirers":[],"Total_Enrollment":1752,"Admission_Rate":0.66,"Avg_Net_Price":30183.0,"Latitude":39.640904,"Longitude":-86.860363},{"School":"creighton university","Recommendation_Tier":"Strong Match","Has_Salary_Data":false,"Median_Earnings_1yr":null,"Median_Earnings_5yr":null,"Avg_GPA":3.9,"Avg_SAT":1253.0,"Fortune500_Hirers":["Union Pacific Corporation","Conagra Brands"],"Total_Enrollment":8397,"Admission_Rate":0.76,"Avg_Net_Price":32145.0,"Latitude":41.265361,"Longitude":-95.947811},{"School":"otterbein university","Recommendation_Tier":"Strong Match","Has_Salary_Data":false,"Median_Earnings_1yr":null,"Median_Earnings_5yr":null,"Avg_GPA":3.7,"Avg_SAT":1167.0,"Fortune500_Hirers":[],"Total_Enrollment":2458,"Admission_Rate":0.84,"Avg_Net_Price":23386.0,"Latitude":40.125327,"Longitude":-82.936444},{"School":"university of arkansas","Recommendation_Tier":"Strong Match","Has_Salary_Data":true,"Median_Earnings_1yr":27873.0,"Median_Earnings_5yr":51587.0,"Avg_GPA":3.8,"Avg_SAT":1253.0,"Fortune500_Hirers":["Globe Life","Kraft Heinz","General Mills","J.B. Hunt","Hershey Company (The)","Interpublic Group of Companies (The)","Invitation Homes","Keurig Dr Pepper","Jack Henry & Associates","Lennox International","Tyson Foods","Entergy","Walmart","Monster Beverage","Clorox","Conagra Brands","Hormel Foods"],"Total_Enrollment":30936,"Admission_Rate":0.79,"Avg_Net_Price":12235.0,"Latitude":36.070009,"Longitude":-94.176981},{"School":"the college of wooster","Recommendation_Tier":"Strong Match","Has_Salary_Data":true,"Median_Earnings_1yr":28013.0,"Median_Earnings_5yr":48091.0,"Avg_GPA":3.7,"Avg_SAT":1282.0,"Fortune500_Hirers":[],"Total_Enrollment":1967,"Admission_Rate":0.56,"Avg_Net_Price":27923.0,"Latitude":40.81046,"Longitude":-81.934674},{"School":"simmons university","Recommendation_Tier":"Strong Match","Has_Salary_Data":false,"Median_Earnings_1yr":null,"Median_Earnings_5yr":null,"Avg_GPA":3.8,"Avg_SAT":1206.0,"Fortune500_Hirers":[],"Total_Enrollment":5710,"Admission_Rate":0.76,"Avg_Net_Price":30008.0,"Latitude":42.3393,"Longitude":-71.099967},{"School":"robert morris university","Recommendation_Tier":"Strong Match","Has_Salary_Data":false,"Median_Earnings_1yr":null,"Median_Earnings_5yr":null,"Avg_GPA":3.6,"Avg_SAT":1126.0,"Fortune500_Hirers":["PNC Financial Services","EQT Corporation","Crown Castle","FedEx"],"Total_Enrollment":3431,"Admission_Rate":0.94,"Avg_Net_Price":26839.0,"Latitude":40.520415,"Longitude":-80.210468},{"School":"temple university","Recommendation_Tier":"Strong Match (Good Earnings)","Has_Salary_Data":true,"Median_Earnings_1yr":33586.0,"Median_Earnings_5yr":52654.0,"Avg_GPA":3.4,"Avg_SAT":1206.0,"Fortune500_Hirers":["Comcast","Merck & Co.","Ametek","Exelon","American Water Works","Loews Corporation","Universal Health Services","Federal Realty Investment Trust","Live Nation Entertainment","Fox Corporation (Class A)","Cigna","Incyte","Chubb Limited","Fox Corporation (Class B)"],"Total_Enrollment":33196,"Admission_Rate":0.8,"Avg_Net_Price":23254.0,"Latitude":39.980546,"Longitude":-75.156859},{"School":"taylor university","Recommendation_Tier":"Strong Match","Has_Salary_Data":false,"Median_Earnings_1yr":null,"Median_Earnings_5yr":null,"Avg_GPA":3.8,"Avg_SAT":1205.0,"Fortune500_Hirers":[],"Total_Enrollment":2221,"Admission_Rate":0.75,"Avg_Net_Price":25888.0,"Latitude":40.456246,"Longitude":-85.497034},{"School":"the university of findlay","Recommendation_Tier":"Strong Match","Has_Salary_Data":false,"Median_Earnings_1yr":null,"Median_Earnings_5yr":null,"Avg_GPA":3.7,"Avg_SAT":1165.0,"Fortune500_Hirers":["Marathon Petroleum"],"Total_Enrollment":4869,"Admission_Rate":0.86,"Avg_Net_Price":24884.0,"Latitude":41.053344,"Longitude":-83.652313},{"School":"drexel university","Recommendation_Tier":"Strong Match","Has_Salary_Data":false,"Median_Earnings_1yr":null,"Median_Earnings_5yr":null,"Avg_GPA":3.8,"Avg_SAT":1295.0,"Fortune500_Hirers":["Comcast","Merck & Co.","Johnson & Johnson","Ametek","West Pharmaceutical Services","Exelon","DuPont","American Water Works","Lockheed Martin","Constellation Energy","Campbell Soup Company","Live Nation Entertainment","Universal Health Services","Air Products","FMC Corporation","Incyte"],"Total_Enrollment":22344,"Admission_Rate":0.8,"Avg_Net_Price":39463.0,"Latitude":39.955217,"Longitude":-75.190051},{"School":"christian brothers university","Recommendation_Tier":"Strong Match","Has_Salary_Data":false,"Median_Earnings_1yr":null,"Median_Earnings_5yr":null,"Avg_GPA":3.8,"Avg_SAT":1205.0,"Fortune500_Hirers":["International Paper","FedEx","Mid-America Apartment Communities"],"Total_Enrollment":1934,"Admission_Rate":0.87,"Avg_Net_Price":11900.0,"Latitude":35.127437,"Longitude":-89.983241},{"School":"brigham young university","Recommendation_Tier":"Good Match (Good Earnings)","Has_Salary_Data":true,"Median_Earnings_1yr":38643.0,"Median_Earnings_5yr":64412.0,"Avg_GPA":3.9,"Avg_SAT":1326.0,"Fortune500_Hirers":["Global Payments","Extra Space Storage","Verisk Analytics","Adobe Inc.","NRG Energy","Lamb Weston"],"Total_Enrollment":34464,"Admission_Rate":0.67,"Avg_Net_Price":13150.0,"Latitude":40.250851,"Longitude":-111.649281},{"School":"chapman university","Recommendation_Tier":"Strong Match","Has_Salary_Data":false,"Median_Earnings_1yr":null,"Median_Earnings_5yr":null,"Avg_GPA":3.8,"Avg_SAT":1296.0,"Fortune500_Hirers":[],"Total_Enrollment":10014,"Admission_Rate":0.73,"Avg_Net_Price":44327.0,"Latitude":33.79302,"Longitude":-117.852518},{"School":"college of the ozarks","Recommendation_Tier":"Strong Match","Has_Salary_Data":false,"Median_Earnings_1yr":null,"Median_Earnings_5yr":null,"Avg_GPA":3.7,"Avg_SAT":1164.0,"Fortune500_Hirers":[],"Total_Enrollment":1487,"Admission_Rate":0.21,"Avg_Net_Price":11349.0,"Latitude":36.616019,"Longitude":-93.238174},{"School":"cedarville university","Recommendation_Tier":"Strong Match","Has_Salary_Data":false,"Median_Earnings_1yr":null,"Median_Earnings_5yr":null,"Avg_GPA":3.9,"Avg_SAT":1244.0,"Fortune500_Hirers":[],"Total_Enrollment":4960,"Admission_Rate":0.65,"Avg_Net_Price":21727.0,"Latitude":39.749237,"Longitude":-83.814692},{"School":"university of montevallo","Recommendation_Tier":"Strong Match (Good Earnings)","Has_Salary_Data":true,"Median_Earnings_1yr":32263.0,"Median_Earnings_5yr":51857.0,"Avg_GPA":3.6,"Avg_SAT":1135.0,"Fortune500_Hirers":[],"Total_Enrollment":2586,"Admission_Rate":0.6,"Avg_Net_Price":16435.0,"Latitude":33.10625,"Longitude":-86.865099},{"School":"salisbury university","Recommendation_Tier":"Strong Match","Has_Salary_Data":true,"Median_Earnings_1yr":27873.0,"Median_Earnings_5yr":49213.0,"Avg_GPA":3.7,"Avg_SAT":1212.0,"Fortune500_Hirers":[],"Total_Enrollment":7123,"Admission_Rate":0.91,"Avg_Net_Price":18599.0,"Latitude":38.34648,"Longitude":-75.604815},{"School":"bennington college","Recommendation_Tier":"Strong Match","Has_Salary_Data":false,"Median_Earnings_1yr":null,"Median_Earnings_5yr":null,"Avg_GPA":3.7,"Avg_SAT":null,"Fortune500_Hirers":[],"Total_Enrollment":880,"Admission_Rate":0.45,"Avg_Net_Price":29325.0,"Latitude":42.919547,"Longitude":-73.237799},{"School":"simpson college","Recommendation_Tier":"Strong Match","Has_Salary_Data":false,"Median_Earnings_1yr":null,"Median_Earnings_5yr":null,"Avg_GPA":3.6,"Avg_SAT":1122.0,"Fortune500_Hirers":[],"Total_Enrollment":1151,"Admission_Rate":0.89,"Avg_Net_Price":19151.0,"Latitude":41.365503,"Longitude":-93.563471},{"School":"molloy college","Recommendation_Tier":"Strong Match","Has_Salary_Data":false,"Median_Earnings_1yr":null,"Median_Earnings_5yr":null,"Avg_GPA":3.7,"Avg_SAT":1162.0,"Fortune500_Hirers":[],"Total_Enrollment":4807,"Admission_Rate":0.77,"Avg_Net_Price":27454.0,"Latitude":40.685941,"Longitude":-73.626183},{"School":"carroll university","Recommendation_Tier":"Strong Match","Has_Salary_Data":false,"Median_Earnings_1yr":null,"Median_Earnings_5yr":null,"Avg_GPA":3.5,"Avg_SAT":1162.0,"Fortune500_Hirers":["Generac"],"Total_Enrollment":3283,"Admission_Rate":0.72,"Avg_Net_Price":24094.0,"Latitude":43.004527,"Longitude":-88.228114},{"School":"michigan state university","Recommendation_Tier":"Strong Match (Good Earnings)","Has_Salary_Data":true,"Median_Earnings_1yr":32434.0,"Median_Earnings_5yr":48421.0,"Avg_GPA":3.8,"Avg_SAT":1223.0,"Fortune500_Hirers":["Howmet Aerospace","Kraft Heinz","General Mills","General Motors","Interpublic Group of Companies (The)","Ecolab","Huntington Bancshares","Packaging Corporation of America","Kellanova","Lilly (Eli)","Masco","CMS Energy","Charles River Laboratories","Ford Motor Company","Ulta Beauty","Darden Restaurants","C.H. Robinson","Hershey Company (The)","Stryker Corporation","DuPont","Aflac","GE Aerospace","Marathon Petroleum","Clorox","W. W. Grainger","Conagra Brands","DTE Energy","IDEX Corporation","LabCorp","Altria","Waste Management","Zimmer Biomet","Domino's","Amcor","Dow Inc.","Eaton Corporation","Hormel Foods"],"Total_Enrollment":50023,"Admission_Rate":0.88,"Avg_Net_Price":16655.0,"Latitude":42.73212,"Longitude":-84.476111},{"School":"asbury university","Recommendation_Tier":"Strong Match","Has_Salary_Data":false,"Median_Earnings_1yr":null,"Median_Earnings_5yr":null,"Avg_GPA":3.8,"Avg_SAT":1201.0,"Fortune500_Hirers":[],"Total_Enrollment":1650,"Admission_Rate":0.79,"Avg_Net_Price":23086.0,"Latitude":37.862029,"Longitude":-84.662606},{"School":"adelphi university","Recommendation_Tier":"Strong Match","Has_Salary_Data":false,"Median_Earnings_1yr":null,"Median_Earnings_5yr":null,"Avg_GPA":3.7,"Avg_SAT":1161.0,"Fortune500_Hirers":["Kimco Realty"],"Total_Enrollment":7252,"Admission_Rate":0.73,"Avg_Net_Price":29821.0,"Latitude":40.721439,"Longitude":-73.653321},{"School":"depaul university","Recommendation_Tier":"Strong Match (Good Earnings)","Has_Salary_Data":true,"Median_Earnings_1yr":36889.0,"Median_Earnings_5yr":52601.0,"Avg_GPA":3.8,"Avg_SAT":1180.0,"Fortune500_Hirers":["Motorola Solutions","CDW","United Airlines Holdings","Equity Residential","Cboe Global Markets","Walgreens Boots Alliance","Allstate","Discover Financial","LKQ Corporation","CME Group","Ulta Beauty","Molson Coors Beverage Company","AbbVie","Zebra Technologies","W. W. Grainger","Illinois Tool Works","IDEX Corporation","Ventas","Dover Corporation","Exelon","Loews Corporation","Fifth Third Bancorp","WEC Energy Group","McDonald's","Northern Trust","Kraft Heinz"],"Total_Enrollment":20917,"Admission_Rate":0.7,"Avg_Net_Price":33319.0,"Latitude":41.877618,"Longitude":-87.62724},{"School":"xavier university of louisiana","Recommendation_Tier":"Strong Match","Has_Salary_Data":false,"Median_Earnings_1yr":null,"Median_Earnings_5yr":null,"Avg_GPA":3.6,"Avg_SAT":1120.0,"Fortune500_Hirers":[],"Total_Enrollment":3419,"Admission_Rate":0.95,"Avg_Net_Price":19066.0,"Latitude":29.964162,"Longitude":-90.107307},{"School":"western new england university","Recommendation_Tier":"Strong Match","Has_Salary_Data":false,"Median_Earnings_1yr":null,"Median_Earnings_5yr":null,"Avg_GPA":3.7,"Avg_SAT":1160.0,"Fortune500_Hirers":[],"Total_Enrollment":3430,"Admission_Rate":0.88,"Avg_Net_Price":30079.0,"Latitude":42.115017,"Longitude":-72.520466},{"School":"state university of new york at cortland","Recommendation_Tier":"Strong Match (Good Earnings)","Has_Salary_Data":true,"Median_Earnings_1yr":30192.0,"Median_Earnings_5yr":58231.0,"Avg_GPA":3.5,"Avg_SAT":1162.0,"Fortune500_Hirers":[],"Total_Enrollment":6690,"Admission_Rate":0.6,"Avg_Net_Price":17743.0,"Latitude":42.598022,"Longitude":-76.188655},{"School":"queens university of charlotte","Recommendation_Tier":"Strong Match","Has_Salary_Data":false,"Median_Earnings_1yr":null,"Median_Earnings_5yr":null,"Avg_GPA":3.7,"Avg_SAT":1159.0,"Fortune500_Hirers":[],"Total_Enrollment":1873,"Admission_Rate":0.71,"Avg_Net_Price":25756.0,"Latitude":35.189051,"Longitude":-80.833509},{"School":"butler university","Recommendation_Tier":"Strong Match","Has_Salary_Data":false,"Median_Earnings_1yr":null,"Median_Earnings_5yr":null,"Avg_GPA":3.9,"Avg_SAT":1262.0,"Fortune500_Hirers":["Lilly (Eli)"],"Total_Enrollment":5525,"Admission_Rate":0.82,"Avg_Net_Price":42627.0,"Latitude":39.8374,"Longitude":-86.172167},{"School":"spring arbor university","Recommendation_Tier":"Strong Match","Has_Salary_Data":false,"Median_Earnings_1yr":null,"Median_Earnings_5yr":null,"Avg_GPA":3.6,"Avg_SAT":1118.0,"Fortune500_Hirers":["CMS Energy"],"Total_Enrollment":2396,"Admission_Rate":0.47,"Avg_Net_Price":19183.0,"Latitude":42.206568,"Longitude":-84.556074},{"School":"wittenberg university","Recommendation_Tier":"Strong Match","Has_Salary_Data":false,"Median_Earnings_1yr":null,"Median_Earnings_5yr":null,"Avg_GPA":3.5,"Avg_SAT":1158.0,"Fortune500_Hirers":[],"Total_Enrollment":1299,"Admission_Rate":0.94,"Avg_Net_Price":21901.0,"Latitude":39.934029,"Longitude":-83.815445},{"School":"siena college","Recommendation_Tier":"Strong Match (Good Earnings)","Has_Salary_Data":true,"Median_Earnings_1yr":29134.0,"Median_Earnings_5yr":60145.0,"Avg_GPA":3.5,"Avg_SAT":1160.0,"Fortune500_Hirers":[],"Total_Enrollment":3648,"Admission_Rate":0.8,"Avg_Net_Price":29625.0,"Latitude":42.717602,"Longitude":-73.7526},{"School":"regis university","Recommendation_Tier":"Strong Match","Has_Salary_Data":false,"Median_Earnings_1yr":null,"Median_Earnings_5yr":null,"Avg_GPA":3.7,"Avg_SAT":1157.0,"Fortune500_Hirers":["UDR, Inc."],"Total_Enrollment":4668,"Admission_Rate":0.76,"Avg_Net_Price":25483.0,"Latitude":39.788175,"Longitude":-105.030756},{"School":"pacific university","Recommendation_Tier":"Strong Match","Has_Salary_Data":false,"Median_Earnings_1yr":null,"Median_Earnings_5yr":null,"Avg_GPA":3.7,"Avg_SAT":1156.0,"Fortune500_Hirers":[],"Total_Enrollment":3559,"Admission_Rate":0.92,"Avg_Net_Price":29498.0,"Latitude":45.521394,"Longitude":-123.108777},{"School":"gordon college","Recommendation_Tier":"Strong Match","Has_Salary_Data":false,"Median_Earnings_1yr":null,"Median_Earnings_5yr":null,"Avg_GPA":3.8,"Avg_SAT":1195.0,"Fortune500_Hirers":[],"Total_Enrollment":1628,"Admission_Rate":0.92,"Avg_Net_Price":27502.0,"Latitude":42.590567,"Longitude":-70.82151},{"School":"aquinas college","Recommendation_Tier":"Strong Match","Has_Salary_Data":false,"Median_Earnings_1yr":null,"Median_Earnings_5yr":null,"Avg_GPA":3.6,"Avg_SAT":1115.0,"Fortune500_Hirers":[],"Total_Enrollment":1265,"Admission_Rate":0.91,"Avg_Net_Price":18812.0,"Latitude":42.96019,"Longitude":-85.628785},{"School":"ohio wesleyan university","Recommendation_Tier":"Strong Match","Has_Salary_Data":false,"Median_Earnings_1yr":null,"Median_Earnings_5yr":null,"Avg_GPA":3.7,"Avg_SAT":1155.0,"Fortune500_Hirers":[],"Total_Enrollment":1410,"Admission_Rate":0.52,"Avg_Net_Price":26628.0,"Latitude":40.295963,"Longitude":-83.069757},{"School":"dallas baptist university","Recommendation_Tier":"Strong Match","Has_Salary_Data":false,"Median_Earnings_1yr":null,"Median_Earnings_5yr":null,"Avg_GPA":3.5,"Avg_SAT":1155.0,"Fortune500_Hirers":[],"Total_Enrollment":4348,"Admission_Rate":0.91,"Avg_Net_Price":26387.0,"Latitude":32.710017,"Longitude":-96.947006},{"School":"viterbo university","Recommendation_Tier":"Strong Match","Has_Salary_Data":false,"Median_Earnings_1yr":null,"Median_Earnings_5yr":null,"Avg_GPA":3.5,"Avg_SAT":1155.0,"Fortune500_Hirers":["Trane Technologies"],"Total_Enrollment":2456,"Admission_Rate":0.72,"Avg_Net_Price":21095.0,"Latitude":43.803133,"Longitude":-91.244297},{"School":"aquinas college","Recommendation_Tier":"Strong Match","Has_Salary_Data":false,"Median_Earnings_1yr":null,"Median_Earnings_5yr":null,"Avg_GPA":3.6,"Avg_SAT":1115.0,"Fortune500_Hirers":[],"Total_Enrollment":1265,"Admission_Rate":0.91,"Avg_Net_Price":18812.0,"Latitude":42.96019,"Longitude":-85.628785},{"School":"desales university","Recommendation_Tier":"Strong Match","Has_Salary_Data":false,"Median_Earnings_1yr":null,"Median_Earnings_5yr":null,"Avg_GPA":3.5,"Avg_SAT":1154.0,"Fortune500_Hirers":["PPL Corporation","Air Products"],"Total_Enrollment":2991,"Admission_Rate":0.77,"Avg_Net_Price":28309.0,"Latitude":40.539091,"Longitude":-75.375608},{"School":"walla walla university","Recommendation_Tier":"Strong Match","Has_Salary_Data":false,"Median_Earnings_1yr":null,"Median_Earnings_5yr":null,"Avg_GPA":3.6,"Avg_SAT":1114.0,"Fortune500_Hirers":[],"Total_Enrollment":1432,"Admission_Rate":0.51,"Avg_Net_Price":20571.0,"Latitude":46.048088,"Longitude":-118.389555},{"School":"high point university","Recommendation_Tier":"Strong Match","Has_Salary_Data":false,"Median_Earnings_1yr":null,"Median_Earnings_5yr":null,"Avg_GPA":3.4,"Avg_SAT":1193.0,"Fortune500_Hirers":["Old Dominion"],"Total_Enrollment":5981,"Admission_Rate":0.79,"Avg_Net_Price":40719.0,"Latitude":35.972035,"Longitude":-79.994675},{"School":"ramapo college of new jersey","Recommendation_Tier":"Strong Match (Good Earnings)","Has_Salary_Data":true,"Median_Earnings_1yr":33145.0,"Median_Earnings_5yr":57644.0,"Avg_GPA":3.5,"Avg_SAT":1137.0,"Fortune500_Hirers":[],"Total_Enrollment":5478,"Admission_Rate":0.7,"Avg_Net_Price":21729.0,"Latitude":41.080942,"Longitude":-74.174086},{"School":"long island university","Recommendation_Tier":"Strong Match","Has_Salary_Data":false,"Median_Earnings_1yr":null,"Median_Earnings_5yr":null,"Avg_GPA":3.4,"Avg_SAT":1192.0,"Fortune500_Hirers":[],"Total_Enrollment":15737,"Admission_Rate":0.93,"Avg_Net_Price":25767.0,"Latitude":40.820714,"Longitude":-73.593678},{"School":"pepperdine university","Recommendation_Tier":"Strong Match","Has_Salary_Data":false,"Median_Earnings_1yr":null,"Median_Earnings_5yr":null,"Avg_GPA":3.7,"Avg_SAT":1349.0,"Fortune500_Hirers":[],"Total_Enrollment":10030,"Admission_Rate":0.49,"Avg_Net_Price":46550.0,"Latitude":34.037786,"Longitude":-118.707077},{"School":"meredith college","Recommendation_Tier":"Strong Match","Has_Salary_Data":false,"Median_Earnings_1yr":null,"Median_Earnings_5yr":null,"Avg_GPA":3.6,"Avg_SAT":1111.0,"Fortune500_Hirers":[],"Total_Enrollment":1587,"Admission_Rate":0.73,"Avg_Net_Price":25257.0,"Latitude":35.799351,"Longitude":-78.689995},{"School":"george fox university","Recommendation_Tier":"Strong Match","Has_Salary_Data":false,"Median_Earnings_1yr":null,"Median_Earnings_5yr":null,"Avg_GPA":3.7,"Avg_SAT":1151.0,"Fortune500_Hirers":[],"Total_Enrollment":4028,"Admission_Rate":0.92,"Avg_Net_Price":30378.0,"Latitude":45.303629,"Longitude":-122.967494},{"School":"georgia state university","Recommendation_Tier":"Strong Match","Has_Salary_Data":true,"Median_Earnings_1yr":32602.0,"Median_Earnings_5yr":41564.0,"Avg_GPA":3.6,"Avg_SAT":1153.0,"Fortune500_Hirers":["AT&T","Equifax","Truist Financial","Intercontinental Exchange","Mid-America Apartment Communities","United Parcel Service","Home Depot (The)","Rollins, Inc.","Assurant","Fiserv","Invesco","Warner Bros. Discovery","Genuine Parts Company","CoStar Group","Global Payments","Southern Company","Norfolk Southern Railway","Delta Air Lines","Coca-Cola Company (The)"],"Total_Enrollment":36516,"Admission_Rate":0.67,"Avg_Net_Price":17750.0,"Latitude":33.7527,"Longitude":-84.38667},{"School":"university of central arkansas","Recommendation_Tier":"Strong Match","Has_Salary_Data":true,"Median_Earnings_1yr":29337.0,"Median_Earnings_5yr":37357.0,"Avg_GPA":3.6,"Avg_SAT":1187.0,"Fortune500_Hirers":["Interpublic Group of Companies (The)","J.B. Hunt","Tyson Foods"],"Total_Enrollment":9913,"Admission_Rate":0.91,"Avg_Net_Price":15376.0,"Latitude":35.077945,"Longitude":-92.457672},{"School":"university of nebraska at omaha","Recommendation_Tier":"Strong Match (Good Earnings)","Has_Salary_Data":true,"Median_Earnings_1yr":36401.0,"Median_Earnings_5yr":50860.0,"Avg_GPA":3.5,"Avg_SAT":1135.0,"Fortune500_Hirers":["Union Pacific Corporation","Interpublic Group of Companies (The)","Fiserv","Berkshire Hathaway","Conagra Brands"],"Total_Enrollment":15058,"Admission_Rate":0.86,"Avg_Net_Price":14040.0,"Latitude":41.258769,"Longitude":-96.008516},{"School":"san diego state university","Recommendation_Tier":"Strong Match (Good Earnings)","Has_Salary_Data":true,"Median_Earnings_1yr":38203.0,"Median_Earnings_5yr":45688.0,"Avg_GPA":3.9,"Avg_SAT":1221.0,"Fortune500_Hirers":["Alexandria Real Estate Equities","Intuit","Costco","Equity Residential","Hologic","U.S. Bancorp","Deckers Brands","Martin Marietta Materials","Jack Henry & Associates","Live Nation Entertainment","Monster Beverage","Becton Dickinson","Wynn Resorts","Fair Isaac","Sempra","Thermo Fisher Scientific","Realty Income","ServiceNow","Dexcom"],"Total_Enrollment":37402,"Admission_Rate":0.39,"Avg_Net_Price":13192.0,"Latitude":32.77525,"Longitude":-117.071228},{"School":"columbia college","Recommendation_Tier":"Strong Match (Good Earnings)","Has_Salary_Data":true,"Median_Earnings_1yr":40054.0,"Median_Earnings_5yr":42789.0,"Avg_GPA":3.6,"Avg_SAT":1099.0,"Fortune500_Hirers":[],"Total_Enrollment":6046,"Admission_Rate":0.51,"Avg_Net_Price":25954.0,"Latitude":38.030367,"Longitude":-120.388385},{"School":"columbia college","Recommendation_Tier":"Strong Match (Good Earnings)","Has_Salary_Data":true,"Median_Earnings_1yr":40054.0,"Median_Earnings_5yr":42789.0,"Avg_GPA":3.6,"Avg_SAT":1099.0,"Fortune500_Hirers":[],"Total_Enrollment":6046,"Admission_Rate":0.51,"Avg_Net_Price":25954.0,"Latitude":38.957388,"Longitude":-92.326354},{"School":"columbia college","Recommendation_Tier":"Strong Match (Good Earnings)","Has_Salary_Data":true,"Median_Earnings_1yr":40054.0,"Median_Earnings_5yr":42789.0,"Avg_GPA":3.6,"Avg_SAT":1099.0,"Fortune500_Hirers":[],"Total_Enrollment":6046,"Admission_Rate":0.51,"Avg_Net_Price":25954.0,"Latitude":34.045581,"Longitude":-81.029967},{"School":"columbia college","Recommendation_Tier":"Strong Match (Good Earnings)","Has_Salary_Data":true,"Median_Earnings_1yr":40054.0,"Median_Earnings_5yr":42789.0,"Avg_GPA":3.6,"Avg_SAT":1099.0,"Fortune500_Hirers":[],"Total_Enrollment":6046,"Admission_Rate":0.51,"Avg_Net_Price":25954.0,"Latitude":38.928425,"Longitude":-77.249152},{"School":"amherst college","Recommendation_Tier":"Consider Match (High Earnings)","Has_Salary_Data":true,"Median_Earnings_1yr":56444.0,"Median_Earnings_5yr":158858.0,"Avg_GPA":4.0,"Avg_SAT":1431.0,"Fortune500_Hirers":["Vici Properties"],"Total_Enrollment":1898,"Admission_Rate":0.07,"Avg_Net_Price":18832.0,"Latitude":42.372459,"Longitude":-72.518493},{"School":"southwest baptist university","Recommendation_Tier":"Strong Match","Has_Salary_Data":false,"Median_Earnings_1yr":null,"Median_Earnings_5yr":null,"Avg_GPA":3.6,"Avg_SAT":1107.0,"Fortune500_Hirers":[],"Total_Enrollment":2386,"Admission_Rate":1.0,"Avg_Net_Price":18202.0,"Latitude":37.602425,"Longitude":-93.407056},{"School":"liberty university","Recommendation_Tier":"Strong Match (Good Earnings)","Has_Salary_Data":true,"Median_Earnings_1yr":33456.0,"Median_Earnings_5yr":null,"Avg_GPA":3.6,"Avg_SAT":1171.0,"Fortune500_Hirers":["CoStar Group","Dominion Energy","Huntington Ingalls Industries","Dollar Tree","CSX Corporation","UDR, Inc.","Norfolk Southern Railway","Universal Health Services","NVR, Inc.","Tractor Supply"],"Total_Enrollment":96709,"Admission_Rate":0.99,"Avg_Net_Price":28762.0,"Latitude":37.350232,"Longitude":-79.18222},{"School":"towson university","Recommendation_Tier":"Good Match (Good Earnings)","Has_Salary_Data":true,"Median_Earnings_1yr":40162.0,"Median_Earnings_5yr":53930.0,"Avg_GPA":3.8,"Avg_SAT":1139.0,"Fortune500_Hirers":["McCormick & Company","Exelon","Constellation Energy","Federal Realty Investment Trust","Kimco Realty","Stanley Black & Decker","NVR, Inc.","T. Rowe Price"],"Total_Enrollment":19793,"Admission_Rate":0.79,"Avg_Net_Price":16082.0,"Latitude":39.393622,"Longitude":-76.611164},{"School":"mercer university","Recommendation_Tier":"Strong Match","Has_Salary_Data":false,"Median_Earnings_1yr":null,"Median_Earnings_5yr":null,"Avg_GPA":3.9,"Avg_SAT":1274.0,"Fortune500_Hirers":[],"Total_Enrollment":8889,"Admission_Rate":0.75,"Avg_Net_Price":21693.0,"Latitude":32.829134,"Longitude":-83.649392},{"School":"bob jones university","Recommendation_Tier":"Strong Match","Has_Salary_Data":false,"Median_Earnings_1yr":null,"Median_Earnings_5yr":null,"Avg_GPA":3.7,"Avg_SAT":1146.0,"Fortune500_Hirers":[],"Total_Enrollment":3095,"Admission_Rate":0.86,"Avg_Net_Price":12923.0,"Latitude":34.874016,"Longitude":-82.365838},{"School":"wayne state university","Recommendation_Tier":"Good Match (Good Earnings)","Has_Salary_Data":true,"Median_Earnings_1yr":41874.0,"Median_Earnings_5yr":52040.0,"Avg_GPA":3.4,"Avg_SAT":1134.0,"Fortune500_Hirers":["Molina Healthcare","General Motors","Domino's","CMS Energy","W. R. Berkley Corporation","Ford Motor Company","MGM Resorts","DTE Energy"],"Total_Enrollment":23630,"Admission_Rate":0.75,"Avg_Net_Price":14993.0,"Latitude":42.358994,"Longitude":-83.068998},{"School":"university of alabama at birmingham","Recommendation_Tier":"Strong Match","Has_Salary_Data":true,"Median_Earnings_1yr":28121.0,"Median_Earnings_5yr":47929.0,"Avg_GPA":3.8,"Avg_SAT":1234.0,"Fortune500_Hirers":["Regions Financial Corporation","Vulcan Materials Company","Southern Company","Hubbell Incorporated","Jack Henry & Associates"],"Total_Enrollment":21639,"Admission_Rate":0.87,"Avg_Net_Price":16978.0,"Latitude":33.505697,"Longitude":-86.799345},{"School":"chatham university","Recommendation_Tier":"Strong Match","Has_Salary_Data":false,"Median_Earnings_1yr":null,"Median_Earnings_5yr":null,"Avg_GPA":3.7,"Avg_SAT":1145.0,"Fortune500_Hirers":[],"Total_Enrollment":2387,"Admission_Rate":0.66,"Avg_Net_Price":28310.0,"Latitude":40.448432,"Longitude":-79.926083},{"School":"university of northern iowa","Recommendation_Tier":"Strong Match","Has_Salary_Data":true,"Median_Earnings_1yr":27569.0,"Median_Earnings_5yr":50182.0,"Avg_GPA":3.6,"Avg_SAT":1149.0,"Fortune500_Hirers":["Deere & Company","Jack Henry & Associates","Alliant Energy","Principal Financial Group","IDEX Corporation"],"Total_Enrollment":8945,"Admission_Rate":0.95,"Avg_Net_Price":16166.0,"Latitude":42.514923,"Longitude":-92.459703},{"School":"cuny lehman college","Recommendation_Tier":"Good Match (Good Earnings)","Has_Salary_Data":true,"Median_Earnings_1yr":43874.0,"Median_Earnings_5yr":54924.0,"Avg_GPA":3.5,"Avg_SAT":1070.0,"Fortune500_Hirers":[],"Total_Enrollment":13015,"Admission_Rate":0.55,"Avg_Net_Price":1814.0,"Latitude":40.872962,"Longitude":-73.895379},{"School":"misericordia university","Recommendation_Tier":"Strong Match","Has_Salary_Data":false,"Median_Earnings_1yr":null,"Median_Earnings_5yr":null,"Avg_GPA":3.5,"Avg_SAT":1144.0,"Fortune500_Hirers":[],"Total_Enrollment":2242,"Admission_Rate":0.89,"Avg_Net_Price":25510.0,"Latitude":41.345277,"Longitude":-75.971541},{"School":"furman university","Recommendation_Tier":"Strong Match","Has_Salary_Data":false,"Median_Earnings_1yr":null,"Median_Earnings_5yr":null,"Avg_GPA":3.7,"Avg_SAT":1356.0,"Fortune500_Hirers":[],"Total_Enrollment":2443,"Admission_Rate":0.67,"Avg_Net_Price":37761.0,"Latitude":34.924676,"Longitude":-82.440458},{"School":"university of denver","Recommendation_Tier":"Strong Match (Good Earnings)","Has_Salary_Data":true,"Median_Earnings_1yr":36774.0,"Median_Earnings_5yr":null,"Avg_GPA":3.8,"Avg_SAT":1295.0,"Fortune500_Hirers":["UDR, Inc.","DaVita","Healthpeak Properties","Xcel Energy"],"Total_Enrollment":13734,"Admission_Rate":0.78,"Avg_Net_Price":38322.0,"Latitude":39.678005,"Longitude":-104.963259},{"School":"university of north georgia","Recommendation_Tier":"Good Match (Good Earnings)","Has_Salary_Data":true,"Median_Earnings_1yr":38226.0,"Median_Earnings_5yr":55603.0,"Avg_GPA":3.5,"Avg_SAT":1102.0,"Fortune500_Hirers":[],"Total_Enrollment":18029,"Admission_Rate":0.7,"Avg_Net_Price":11322.0,"Latitude":34.530219,"Longitude":-83.985694},{"School":"samford university","Recommendation_Tier":"Strong Match","Has_Salary_Data":false,"Median_Earnings_1yr":null,"Median_Earnings_5yr":null,"Avg_GPA":3.9,"Avg_SAT":1223.0,"Fortune500_Hirers":["Vulcan Materials Company","Regions Financial Corporation"],"Total_Enrollment":5682,"Admission_Rate":0.83,"Avg_Net_Price":31322.0,"Latitude":33.464128,"Longitude":-86.791799},{"School":"grace college and theological seminary","Recommendation_Tier":"Strong Match","Has_Salary_Data":false,"Median_Earnings_1yr":null,"Median_Earnings_5yr":null,"Avg_GPA":3.6,"Avg_SAT":null,"Fortune500_Hirers":[],"Total_Enrollment":2065,"Admission_Rate":0.85,"Avg_Net_Price":20415.0,"Latitude":41.22595,"Longitude":-85.814228},{"School":"university of delaware","Recommendation_Tier":"Good Match (Good Earnings)","Has_Salary_Data":true,"Median_Earnings_1yr":34753.0,"Median_Earnings_5yr":56763.0,"Avg_GPA":4.0,"Avg_SAT":1261.0,"Fortune500_Hirers":["Merck & Co.","NVR, Inc.","Waters Corporation","Exelon","MarketAxess","DuPont","American Water Works","M&T Bank","Agilent Technologies","International Flavors & Fragrances","Air Products","FMC Corporation","Hologic","Incyte"],"Total_Enrollment":24039,"Admission_Rate":0.74,"Avg_Net_Price":19747.0,"Latitude":39.679577,"Longitude":-75.752822},{"School":"evangel university","Recommendation_Tier":"Strong Match","Has_Salary_Data":false,"Median_Earnings_1yr":null,"Median_Earnings_5yr":null,"Avg_GPA":3.6,"Avg_SAT":1102.0,"Fortune500_Hirers":["Jack Henry & Associates"],"Total_Enrollment":1868,"Admission_Rate":0.68,"Avg_Net_Price":22837.0,"Latitude":37.220956,"Longitude":-93.262614},{"School":"saint francis university","Recommendation_Tier":"Strong Match","Has_Salary_Data":false,"Median_Earnings_1yr":null,"Median_Earnings_5yr":null,"Avg_GPA":3.7,"Avg_SAT":1142.0,"Fortune500_Hirers":[],"Total_Enrollment":2857,"Admission_Rate":0.73,"Avg_Net_Price":29393.0,"Latitude":40.506734,"Longitude":-78.63904},{"School":"university of colorado boulder","Recommendation_Tier":"Strong Match (Good Earnings)","Has_Salary_Data":true,"Median_Earnings_1yr":37044.0,"Median_Earnings_5yr":48790.0,"Avg_GPA":3.8,"Avg_SAT":1330.0,"Fortune500_Hirers":["NetApp","Deckers Brands","Keysight Technologies","Workday, Inc.","Prologis","Lockheed Martin","Agilent Technologies","DaVita","Charter Communications","UDR, Inc.","AES Corporation","Xcel Energy","Allegion","Trimble Inc.","Molson Coors Beverage Company","Seagate Technology"],"Total_Enrollment":38428,"Admission_Rate":0.76,"Avg_Net_Price":21198.0,"Latitude":40.008781,"Longitude":-105.270823},{"School":"university of mary washington","Recommendation_Tier":"Strong Match (Good Earnings)","Has_Salary_Data":true,"Median_Earnings_1yr":31965.0,"Median_Earnings_5yr":51227.0,"Avg_GPA":3.8,"Avg_SAT":1193.0,"Fortune500_Hirers":[],"Total_Enrollment":3757,"Admission_Rate":0.86,"Avg_Net_Price":22569.0,"Latitude":38.302492,"Longitude":-77.476055},{"School":"saginaw valley state university","Recommendation_Tier":"Good Match (Good Earnings)","Has_Salary_Data":true,"Median_Earnings_1yr":38628.0,"Median_Earnings_5yr":45658.0,"Avg_GPA":3.6,"Avg_SAT":1089.0,"Fortune500_Hirers":["CMS Energy","Dow Inc."],"Total_Enrollment":7147,"Admission_Rate":0.76,"Avg_Net_Price":14248.0,"Latitude":43.51176,"Longitude":-83.964273},{"School":"hawaii pacific university","Recommendation_Tier":"Strong Match","Has_Salary_Data":false,"Median_Earnings_1yr":null,"Median_Earnings_5yr":null,"Avg_GPA":3.6,"Avg_SAT":1100.0,"Fortune500_Hirers":[],"Total_Enrollment":4876,"Admission_Rate":0.87,"Avg_Net_Price":29827.0,"Latitude":21.310306,"Longitude":-157.859645},{"School":"north central college","Recommendation_Tier":"Strong Match","Has_Salary_Data":false,"Median_Earnings_1yr":null,"Median_Earnings_5yr":null,"Avg_GPA":3.7,"Avg_SAT":1140.0,"Fortune500_Hirers":[],"Total_Enrollment":3003,"Admission_Rate":0.77,"Avg_Net_Price":24190.0,"Latitude":41.77576,"Longitude":-88.14279},{"School":"university of st francis","Recommendation_Tier":"Strong Match","Has_Salary_Data":false,"Median_Earnings_1yr":null,"Median_Earnings_5yr":null,"Avg_GPA":3.5,"Avg_SAT":1140.0,"Fortune500_Hirers":[],"Total_Enrollment":3297,"Admission_Rate":0.58,"Avg_Net_Price":16761.0,"Latitude":41.532225,"Longitude":-88.096057},{"School":"university of colorado colorado springs","Recommendation_Tier":"Strong Match (Good Earnings)","Has_Salary_Data":true,"Median_Earnings_1yr":38276.0,"Median_Earnings_5yr":44119.0,"Avg_GPA":3.5,"Avg_SAT":1136.0,"Fortune500_Hirers":["Keysight Technologies","Allegion"],"Total_Enrollment":11431,"Admission_Rate":0.85,"Avg_Net_Price":16486.0,"Latitude":38.892735,"Longitude":-104.800296},{"School":"newman university","Recommendation_Tier":"Strong Match","Has_Salary_Data":false,"Median_Earnings_1yr":null,"Median_Earnings_5yr":null,"Avg_GPA":3.6,"Avg_SAT":1099.0,"Fortune500_Hirers":[],"Total_Enrollment":2848,"Admission_Rate":0.51,"Avg_Net_Price":16497.0,"Latitude":37.672643,"Longitude":-97.37768},{"School":"columbia college","Recommendation_Tier":"Strong Match","Has_Salary_Data":false,"Median_Earnings_1yr":null,"Median_Earnings_5yr":null,"Avg_GPA":3.6,"Avg_SAT":1099.0,"Fortune500_Hirers":[],"Total_Enrollment":6046,"Admission_Rate":0.51,"Avg_Net_Price":25954.0,"Latitude":38.030367,"Longitude":-120.388385},{"School":"columbia college","Recommendation_Tier":"Strong Match","Has_Salary_Data":false,"Median_Earnings_1yr":null,"Median_Earnings_5yr":null,"Avg_GPA":3.6,"Avg_SAT":1099.0,"Fortune500_Hirers":[],"Total_Enrollment":6046,"Admission_Rate":0.51,"Avg_Net_Price":25954.0,"Latitude":38.957388,"Longitude":-92.326354},{"School":"columbia college","Recommendation_Tier":"Strong Match","Has_Salary_Data":false,"Median_Earnings_1yr":null,"Median_Earnings_5yr":null,"Avg_GPA":3.6,"Avg_SAT":1099.0,"Fortune500_Hirers":[],"Total_Enrollment":6046,"Admission_Rate":0.51,"Avg_Net_Price":25954.0,"Latitude":34.045581,"Longitude":-81.029967},{"School":"columbia college","Recommendation_Tier":"Strong Match","Has_Salary_Data":false,"Median_Earnings_1yr":null,"Median_Earnings_5yr":null,"Avg_GPA":3.6,"Avg_SAT":1099.0,"Fortune500_Hirers":[],"Total_Enrollment":6046,"Admission_Rate":0.51,"Avg_Net_Price":25954.0,"Latitude":38.928425,"Longitude":-77.249152},{"School":"marywood university","Recommendation_Tier":"Strong Match","Has_Salary_Data":false,"Median_Earnings_1yr":null,"Median_Earnings_5yr":null,"Avg_GPA":3.6,"Avg_SAT":1098.0,"Fortune500_Hirers":[],"Total_Enrollment":2729,"Admission_Rate":0.81,"Avg_Net_Price":21657.0,"Latitude":41.434587,"Longitude":-75.634142},{"School":"bethany lutheran college","Recommendation_Tier":"Strong Match","Has_Salary_Data":false,"Median_Earnings_1yr":null,"Median_Earnings_5yr":null,"Avg_GPA":3.5,"Avg_SAT":1138.0,"Fortune500_Hirers":[],"Total_Enrollment":830,"Admission_Rate":0.58,"Avg_Net_Price":16368.0,"Latitude":44.166649,"Longitude":-93.990805},{"School":"northwest university","Recommendation_Tier":"Strong Match","Has_Salary_Data":false,"Median_Earnings_1yr":null,"Median_Earnings_5yr":null,"Avg_GPA":3.5,"Avg_SAT":1138.0,"Fortune500_Hirers":[],"Total_Enrollment":1014,"Admission_Rate":0.94,"Avg_Net_Price":22194.0,"Latitude":47.657945,"Longitude":-122.192763},{"School":"state university of new york at new paltz","Recommendation_Tier":"Strong Match","Has_Salary_Data":true,"Median_Earnings_1yr":20124.0,"Median_Earnings_5yr":49161.0,"Avg_GPA":3.6,"Avg_SAT":1192.0,"Fortune500_Hirers":[],"Total_Enrollment":6964,"Admission_Rate":0.58,"Avg_Net_Price":17171.0,"Latitude":41.740936,"Longitude":-74.082188},{"School":"hendrix college","Recommendation_Tier":"Strong Match","Has_Salary_Data":false,"Median_Earnings_1yr":null,"Median_Earnings_5yr":null,"Avg_GPA":3.8,"Avg_SAT":1324.0,"Fortune500_Hirers":[],"Total_Enrollment":1144,"Admission_Rate":0.6,"Avg_Net_Price":19295.0,"Latitude":35.101565,"Longitude":-92.443256},{"School":"university of sioux falls","Recommendation_Tier":"Strong Match","Has_Salary_Data":false,"Median_Earnings_1yr":null,"Median_Earnings_5yr":null,"Avg_GPA":3.5,"Avg_SAT":1136.0,"Fortune500_Hirers":[],"Total_Enrollment":1594,"Admission_Rate":0.76,"Avg_Net_Price":19893.0,"Latitude":43.531574,"Longitude":-96.738229},{"School":"tennessee technological university","Recommendation_Tier":"Strong Match","Has_Salary_Data":true,"Median_Earnings_1yr":24659.0,"Median_Earnings_5yr":41502.0,"Avg_GPA":3.6,"Avg_SAT":1187.0,"Fortune500_Hirers":["A. O. Smith","Tractor Supply","Dollar General","Eastman Chemical Company"],"Total_Enrollment":9902,"Admission_Rate":0.78,"Avg_Net_Price":15929.0,"Latitude":36.174754,"Longitude":-85.504039},{"School":"whittier college","Recommendation_Tier":"Strong Match","Has_Salary_Data":false,"Median_Earnings_1yr":null,"Median_Earnings_5yr":null,"Avg_GPA":3.5,"Avg_SAT":1135.0,"Fortune500_Hirers":[],"Total_Enrollment":1192,"Admission_Rate":0.75,"Avg_Net_Price":28647.0,"Latitude":33.978773,"Longitude":-118.032299},{"School":"hamline university","Recommendation_Tier":"Strong Match","Has_Salary_Data":false,"Median_Earnings_1yr":null,"Median_Earnings_5yr":null,"Avg_GPA":3.5,"Avg_SAT":1135.0,"Fortune500_Hirers":[],"Total_Enrollment":2638,"Admission_Rate":0.81,"Avg_Net_Price":21528.0,"Latitude":44.966246,"Longitude":-93.164479},{"School":"southeast missouri state university","Recommendation_Tier":"Strong Match","Has_Salary_Data":false,"Median_Earnings_1yr":null,"Median_Earnings_5yr":null,"Avg_GPA":3.5,"Avg_SAT":1135.0,"Fortune500_Hirers":["Ameren"],"Total_Enrollment":9927,"Admission_Rate":0.86,"Avg_Net_Price":12774.0,"Latitude":37.311107,"Longitude":-89.531187},{"School":"gannon university","Recommendation_Tier":"Strong Match","Has_Salary_Data":false,"Median_Earnings_1yr":null,"Median_Earnings_5yr":null,"Avg_GPA":3.7,"Avg_SAT":1135.0,"Fortune500_Hirers":["Wabtec","Erie Indemnity"],"Total_Enrollment":4665,"Admission_Rate":0.81,"Avg_Net_Price":22839.0,"Latitude":42.128403,"Longitude":-80.087166},